SOURCE_FILE,OACI,CIAD,NAME,MUNICIPIO,UF,ALT_M,OPERAÇÃO,OP_DIURNA,OP_NOTURNA,LAT_DD,LON_DD,N_RWYS,RUNWAY1_D_NM,RUNWAY2_D_NM,RUNWAY3_D_NM,RUNWAY1_LEN_M,RUNWAY2_LEN_M,RUNWAY3_LEN_M,RUNWAY1_WID_M,RUNWAY2_WID_M,RUNWAY3_WID_M,DATASET_TYPE
2025_08_22_BR_aerodromes_public,SBAA,PA0008,CONCEIÇÃO DO ARAGUAIA,CONCEIÇÃO DO ARAGUAIA,PA,199.0,VFR Diurno/Noturno e IFR Diurno,,,-8.348611111111111,-49.30305555555555,1,80.0,,,1800.0,,,30.0,,,heliport
2025_08_22_BR_aerodromes_public,SBAE,SP0010,BAURU/AREALVA,BAURU,SP,598.0,VFR Diurno/Noturno e IFR Diurno/Noturno,,,-22.157777777777778,-49.068333333333335,1,170.0,,,2010.0,,,45.0,,,heliport
2025_08_22_BR_aerodromes_public,SBAQ,SP0012,BARTOLOMEU DE GUSMÃO,ARARAQUARA,SP,711.0,VFR Diurno/Noturno e IFR Diurno/Noturno,,,-21.811944444444446,-48.13305555555556,1,170.0,,,1800.0,,,30.0,,,heliport
2025_08_22_BR_aerodromes_public,SBAR,SE0001,SANTA MARIA,ARACAJU,SE,7.0,VFR Diurno/Noturno e IFR Diurno/Noturno,,,-10.985277777777776,-37.07333333333334,1,120.0,,,2200.0,,,45.0,,,heliport
2025_08_22_BR_aerodromes_public,SBAT,MT0003,PILOTO OSVALDO MARQUES DIAS,ALTA FLORESTA,MT,289.0,VFR Diurno/Noturno e IFR Diurno/Noturno,,,-9.866388888888888,-56.105000000000004,1,40.0,,,2500.0,,,30.0,,,heliport
2025_08_22_BR_aerodromes_public,SBAU,SP0009,ARAÇATUBA,ARAÇATUBA,SP,414.0,VFR Diurno/Noturno e IFR Diurno/Noturno,,,-21.144166666666667,-50.42638888888889,1,50.0,,,2120.0,,,35.0,,,heliport
2025_08_22_BR_aerodromes_public,SBAX,MG0008,ROMEU ZEMA,ARAXÁ,MG,998.0,VFR Diurno/Noturno e IFR Diurno/Noturno,,,-19.563055555555557,-46.96055555555556,1,160.0,,,1900.0,,,30.0,,,heliport
2025_08_22_BR_aerodromes_public,SBBE,PA0001,INTERNACIONAL DE BELÉM/VAL DE CANS/JÚLIO CEZAR RIBEIRO,BELÉM,PA,17.0,VFR Diurno/Noturno e IFR Diurno/Noturno,,,-1.3847222222222222,-48.47888888888889,2,70.0,30.0,,2800.0,1830.0,,45.0,45.0,,heliport
2025_08_22_BR_aerodromes_public,SBBG,RS0010,COMANDANTE GUSTAVO KRAEMER,BAGÉ,RS,182.0,VFR Diurno/Noturno e IFR Diurno/Noturno,,,-31.390833333333333,-54.109722222222224,1,60.0,,,1500.0,,,30.0,,,heliport
2025_08_22_BR_aerodromes_public,SBBH,MG0003,PAMPULHA - CARLOS DRUMMOND DE ANDRADE,BELO HORIZONTE,MG,789.0,VFR Diurno/Noturno e IFR Diurno/Noturno,,,-19.851944444444445,-43.95055555555556,1,130.0,,,2364.0,,,45.0,,,heliport
2025_08_22_BR_aerodromes_public,SBBI,PR0006,BACACHERI,CURITIBA,PR,931.0,VFR Diurno/Noturno e IFR Diurno/Noturno,,,-25.403333333333332,-49.23361111111111,1,180.0,,,1221.0,,,31.0,,,heliport
2025_08_22_BR_aerodromes_public,SBBP,SP0036,ESTADUAL ARTHUR SIQUEIRA,BRAGANÇA PAULISTA,SP,893.0,VFR Diurno/Noturno,,,-22.978888888888886,-46.53722222222222,1,160.0,,,1200.0,,,30.0,,,heliport
2025_08_22_BR_aerodromes_public,SBBR,DF0001,PRESIDENTE JUSCELINO KUBITSCHEK,BRASÍLIA,DF,1066.0,VFR Diurno/Noturno e IFR Diurno/Noturno,,,-15.869166666666667,-47.920833333333334,2,110.0,110.0,,3200.0,3300.0,,45.0,45.0,,heliport
2025_08_22_BR_aerodromes_public,SBBU,SP0017,BAURU,BAURU,SP,617.0,VFR Diurno/Noturno e IFR Diurno/Noturno,,,-22.345,-49.053888888888885,1,140.0,,,1501.0,,,35.0,,,heliport
2025_08_22_BR_aerodromes_public,SBBV,RR0001,ATLAS BRASIL CANTANHEDE,BOA VISTA,RR,84.0,VFR Diurno/Noturno e IFR Diurno/Noturno,,,2.841388888888889,-60.69222222222222,1,80.0,,,2700.0,,,45.0,,,heliport
2025_08_22_BR_aerodromes_public,SBBW,MT0008,BARRA DO GARÇAS,BARRA DO GARÇAS,MT,350.0,VFR Diurno/Noturno e IFR Diurno/Noturno,,,-15.861388888888888,-52.388888888888886,1,70.0,,,1598.0,,,30.0,,,heliport
2025_08_22_BR_aerodromes_public,SBCA,PR0005,AEROPORTO REGIONAL DO OESTE - CEL. ADALBERTO MENDES DA SILVA,CASCAVEL,PR,759.0,VFR Diurno/Noturno e IFR Diurno/Noturno,,,-25.002222222222223,-53.50194444444445,1,150.0,,,1771.0,,,45.0,,,heliport
2025_08_22_BR_aerodromes_public,SBCB,RJ0003,CABO FRIO,CABO FRIO,RJ,7.0,VFR Diurno/Noturno e IFR Diurno/Noturno,,,-22.920833333333334,-42.07138888888889,1,100.0,,,2550.0,,,45.0,,,heliport
2025_08_22_BR_aerodromes_public,SBCD,SC0006,PREFEITO DR. CARLOS ALBERTO DA COSTA NEVES,CAÇADOR,SC,1029.0,VFR Diurno/Noturno e IFR Diurno/Noturno,,,-26.78805555555556,-50.94,1,20.0,,,1873.0,,,30.0,,,heliport
2025_08_22_BR_aerodromes_public,SBCF,MG0001,TANCREDO NEVES,BELO HORIZONTE,MG,829.0,VFR Diurno/Noturno e IFR Diurno/Noturno,,,-19.624444444444446,-43.971944444444446,1,160.0,,,3600.0,,,45.0,,,heliport
2025_08_22_BR_aerodromes_public,SBCG,MS0001,CAMPO GRANDE,CAMPO GRANDE,MS,559.0,VFR Diurno/Noturno e IFR Diurno/Noturno,,,-20.46944444444444,-54.67027777777778,1,60.0,,,2600.0,,,45.0,,,heliport
2025_08_22_BR_aerodromes_public,SBCH,SC0003,SERAFIN ENOSS BERTASO,CHAPECÓ,SC,654.0,VFR Diurno/Noturno e IFR Diurno/Noturno,,,-27.133888888888887,-52.65888888888889,1,110.0,,,2060.0,,,45.0,,,heliport
2025_08_22_BR_aerodromes_public,SBCI,MA0003,BRIGADEIRO LYSIAS AUGUSTO RODRIGUES,CAROLINA,MA,172.0,VFR Diurno e IFR Diurno/Noturno,,,-7.320555555555555,-47.45861111111111,1,110.0,,,1800.0,,,45.0,,,heliport
2025_08_22_BR_aerodromes_public,SBCJ,PA0006,CARAJÁS,PARAUAPEBAS,PA,629.0,VFR Diurno/Noturno e IFR Diurno/Noturno,,,-6.1177777777777775,-50.00333333333333,1,100.0,,,2000.0,,,45.0,,,heliport
2025_08_22_BR_aerodromes_public,SSIM,SC0009,FORQUILHINHA-CRICIÚMA,FORQUILHINHA,SC,28.0,VFR Diurno/Noturno,,,-28.72583333333333,-49.42472222222222,1,90.0,,,1568.0,,,30.0,,,heliport
2025_08_22_BR_aerodromes_public,SBCN,GO0003,NELSON RODRIGUES GUIMARÃES,CALDAS NOVAS,GO,703.0,VFR Diurno/Noturno e IFR Diurno/Noturno,,,-17.724999999999998,-48.60638888888889,1,90.0,,,2110.0,,,45.0,,,heliport
2025_08_22_BR_aerodromes_public,SBCP,RJ0006,BARTOLOMEU LISANDRO,CAMPOS DOS GOYTACAZES,RJ,18.0,VFR Diurno/Noturno e IFR Diurno/Noturno,,,-21.70111111111111,-41.30777777777777,1,70.0,,,1544.0,,,45.0,,,heliport
2025_08_22_BR_aerodromes_public,SBCR,MS0009,CORUMBÁ,CORUMBÁ,MS,141.0,VFR Diurno/Noturno e IFR Diurno/Noturno,,,-19.011944444444445,-57.671388888888885,1,90.0,,,1500.0,,,45.0,,,heliport
2025_08_22_BR_aerodromes_public,SBCT,PR0001,AFONSO PENA,CURITIBA,PR,911.0,VFR Diurno/Noturno e IFR Diurno/Noturno,,,-25.531666666666666,-49.17611111111111,2,150.0,110.0,,2218.0,1798.0,,45.0,45.0,,heliport
2025_08_22_BR_aerodromes_public,SBCX,RS0007,HUGO CANTERGIANI,CAXIAS DO SUL,RS,754.0,VFR Diurno/Noturno e IFR Diurno/Noturno,,,-29.198055555555555,-51.18666666666666,1,150.0,,,1670.0,,,30.0,,,heliport
2025_08_22_BR_aerodromes_public,SBCY,MT0001,MARECHAL RONDON,CUIABÁ,MT,188.0,VFR Diurno/Noturno e IFR Diurno/Noturno,,,-15.65,-56.1175,1,170.0,,,2300.0,,,45.0,,,heliport
2025_08_22_BR_aerodromes_public,SSCL,MS0018,CASSILÂNDIA,CASSILÂNDIA,MS,481.0,VFR Diurno,,,-19.146944444444443,-51.67638888888889,1,130.0,,,1254.0,,,18.0,,,heliport
2025_08_22_BR_aerodromes_public,SBDB,MS0004,AERÓDROMO PÚBLICO DE BONITO,BONITO,MS,334.0,VFR Diurno/Noturno e IFR Diurno/Noturno,,,-21.247222222222224,-56.4525,1,180.0,,,2000.0,,,30.0,,,heliport
2025_08_22_BR_aerodromes_public,SBDN,SP0005,PRESIDENTE PRUDENTE,PRESIDENTE PRUDENTE,SP,452.0,VFR Diurno/Noturno e IFR Diurno/Noturno,,,-22.175,-51.42444444444444,1,120.0,,,2100.0,,,35.0,,,heliport
2025_08_22_BR_aerodromes_public,SBDO,MS0008,DOURADOS,DOURADOS,MS,457.0,VFR Diurno/Noturno e IFR Diurno/Noturno,,,-22.200555555555553,-54.925555555555555,1,60.0,,,1950.0,,,30.0,,,heliport
2025_08_22_BR_aerodromes_public,SBEG,AM0001,EDUARDO GOMES,MANAUS,AM,80.0,VFR Diurno/Noturno e IFR Diurno/Noturno,,,-3.041111111111111,-60.050555555555555,1,110.0,,,2700.0,,,45.0,,,heliport
2025_08_22_BR_aerodromes_public,SBEK,PA0011,JACAREACANGA,JACAREACANGA,PA,101.0,VFR Diurno,,,-6.235277777777778,-57.77583333333333,1,80.0,,,1600.0,,,30.0,,,heliport
2025_08_22_BR_aerodromes_public,SBFI,PR0002,CATARATAS,FOZ DO IGUAÇU,PR,240.0,VFR Diurno/Noturno e IFR Diurno/Noturno,,,-25.60027777777778,-54.485,1,150.0,,,2102.0,,,45.0,,,heliport
2025_08_22_BR_aerodromes_public,SBFL,SC0001,HERCÍLIO LUZ,FLORIANÓPOLIS,SC,5.0,VFR Diurno/Noturno e IFR Diurno/Noturno,,,-27.67027777777778,-48.552499999999995,2,140.0,30.0,,2400.0,1320.0,,45.0,45.0,,heliport
2025_08_22_BR_aerodromes_public,SBFN,PE0003,FERNANDO DE NORONHA,FERNANDO DE NORONHA,PE,58.0,VFR Diurno/Noturno e IFR Diurno/Noturno,,,-3.854722222222222,-32.42833333333333,1,120.0,,,1845.0,,,45.0,,,heliport
2025_08_22_BR_aerodromes_public,SBFZ,CE0001,PINTO MARTINS,FORTALEZA,CE,25.0,VFR Diurno/Noturno e IFR Diurno/Noturno,,,-3.7758333333333334,-38.532222222222224,1,130.0,,,2755.0,,,45.0,,,heliport
2025_08_22_BR_aerodromes_public,SBGL,RJ0001,RIO DE JANEIRO/GALEÃO – ANTÔNIO CARLOS JOBIM,RIO DE JANEIRO,RJ,9.0,VFR Diurno/Noturno e IFR Diurno/Noturno,,,-22.810000000000002,-43.25055555555556,2,100.0,150.0,,4000.0,3180.0,,45.0,47.0,,heliport
2025_08_22_BR_aerodromes_public,SBGM,RO0006,GUAJARÁ-MIRIM,GUAJARÁ-MIRIM,RO,146.0,VFR Diurno/Noturno,,,-10.788333333333334,-65.28166666666667,1,170.0,,,1795.0,,,45.0,,,heliport
2025_08_22_BR_aerodromes_public,SBGO,GO0001,SANTA GENOVEVA/GOIÂNIA,GOIÂNIA,GO,747.0,VFR Diurno/Noturno e IFR Diurno/Noturno,,,-16.6325,-49.221111111111114,1,140.0,,,2286.0,,,45.0,,,heliport
2025_08_22_BR_aerodromes_public,SBGR,SP0002,GUARULHOS - GOVERNADOR ANDRÉ FRANCO MONTORO,GUARULHOS,SP,750.0,VFR Diurno/Noturno e IFR Diurno/Noturno,,,-23.435555555555556,-46.473055555555554,2,100.0,100.0,,3700.0,3000.0,,45.0,45.0,,heliport
2025_08_22_BR_aerodromes_public,SSGG,PR0009,AEROPORTO REGIONAL DE GUARAPUAVA - TANCREDO THOMÁS DE FARIA,GUARAPUAVA,PR,1065.0,VFR Diurno/Noturno e IFR Diurno/Noturno,,,-25.388333333333332,-51.52361111111111,1,80.0,,,1365.0,,,30.0,,,heliport
2025_08_22_BR_aerodromes_public,SBGV,MG0032,CORONEL ALTINO MACHADO,GOVERNADOR VALADARES,MG,171.0,VFR Diurno/Noturno e IFR Diurno/Noturno,,,-18.89611111111111,-41.983333333333334,1,70.0,,,1701.0,,,30.0,,,heliport
2025_08_22_BR_aerodromes_public,SBGW,SP0076,GUARATINGUETÁ,GUARATINGUETÁ,SP,537.0,VFR Diurno/Noturno e IFR Diurno/Noturno,,,-22.791666666666668,-45.20444444444445,1,20.0,,,1551.0,,,30.0,,,heliport
2025_08_22_BR_aerodromes_public,SBHT,PA0003,ALTAMIRA,ALTAMIRA,PA,112.0,VFR Diurno/Noturno e IFR Diurno/Noturno,,,-3.2508333333333335,-52.25222222222222,1,70.0,,,2003.0,,,30.0,,,heliport
2025_08_22_BR_aerodromes_public,SBIC,AM0012,ITACOATIARA,ITACOATIARA,AM,43.0,VFR Diurno,,,-3.126388888888889,-58.48166666666667,1,140.0,,,1520.0,,,30.0,,,heliport
2025_08_22_BR_aerodromes_public,SBIH,PA0010,ITAITUBA,ITAITUBA,PA,33.0,VFR Diurno/Noturno e IFR Diurno/Noturno,,,-4.242222222222222,-56.00083333333333,1,60.0,,,1700.0,,,30.0,,,heliport
2025_08_22_BR_aerodromes_public,SBIL,BA0004,BAHIA - JORGE AMADO,ILHÉUS,BA,4.0,VFR Diurno/Noturno,,,-14.815000000000001,-39.03333333333333,1,110.0,,,1577.0,,,45.0,,,heliport
2025_08_22_BR_aerodromes_public,SBIP,MG0007,USIMINAS,SANTANA DO PARAÍSO,MG,240.0,VFR Diurno e IFR Diurno/Noturno,,,-19.470555555555553,-42.488055555555555,1,50.0,,,2004.0,,,45.0,,,heliport
2025_08_22_BR_aerodromes_public,SBIZ,MA0002,PREFEITO RENATO MOREIRA,IMPERATRIZ,MA,131.0,VFR Diurno/Noturno e IFR Diurno/Noturno,,,-5.530555555555556,-47.458333333333336,1,70.0,,,1798.0,,,45.0,,,heliport
2025_08_22_BR_aerodromes_public,SBJD,SP0031,COMANDANTE ROLIM ADOLFO AMARO,JUNDIAÍ,SP,753.0,VFR Diurno/Noturno e IFR Diurno/Noturno,,,-23.18166666666667,-46.94361111111111,1,180.0,,,1400.0,,,30.0,,,heliport
2025_08_22_BR_aerodromes_public,SBJF,MG0016,FRANCISCO DE ASSIS,JUIZ DE FORA,MG,911.0,VFR Diurno/Noturno e IFR Diurno/Noturno,,,-21.793055555555558,-43.385555555555555,1,30.0,,,1535.0,,,30.0,,,heliport
2025_08_22_BR_aerodromes_public,SBJI,RO0005,JI-PARANÁ,JI-PARANÁ,RO,182.0,VFR Diurno/Noturno e IFR Diurno/Noturno,,,-10.870555555555557,-61.84666666666667,1,30.0,,,1800.0,,,45.0,,,heliport
2025_08_22_BR_aerodromes_public,SBJP,PB0001,PRESIDENTE CASTRO PINTO,JOÃO PESSOA,PB,66.0,VFR Diurno/Noturno e IFR Diurno/Noturno,,,-7.148333333333333,-34.95027777777778,1,160.0,,,2515.0,,,45.0,,,heliport
2025_08_22_BR_aerodromes_public,SBJR,RJ0005,JACAREPAGUÁ - ROBERTO MARINHO,RIO DE JANEIRO,RJ,3.0,VFR Diurno/Noturno,,,-22.9875,-43.37,1,30.0,,,900.0,,,30.0,,,heliport
2025_08_22_BR_aerodromes_public,SBJU,CE0002,ORLANDO BEZERRA DE MENEZES,JUAZEIRO DO NORTE,CE,409.0,VFR Diurno/Noturno e IFR Diurno/Noturno,,,-7.219166666666667,-39.269444444444446,1,130.0,,,1940.0,,,45.0,,,heliport
2025_08_22_BR_aerodromes_public,SBJV,SC0004,LAURO CARNEIRO DE LOYOLA,JOINVILLE,SC,5.0,VFR Diurno/Noturno e IFR Diurno/Noturno,,,-26.223055555555554,-48.797777777777775,1,150.0,,,1540.0,,,45.0,,,heliport
2025_08_22_BR_aerodromes_public,SBKG,PB0003,PRESIDENTE JOÃO SUASSUNA,CAMPINA GRANDE,PB,502.0,VFR Diurno/Noturno e IFR Diurno/Noturno,,,-7.269166666666667,-35.894999999999996,1,150.0,,,1565.0,,,42.0,,,heliport
2025_08_22_BR_aerodromes_public,SBKP,SP0003,VIRACOPOS,CAMPINAS,SP,661.0,VFR Diurno/Noturno e IFR Diurno/Noturno,,,-23.006944444444443,-47.13444444444444,1,150.0,,,3240.0,,,45.0,,,heliport
2025_08_22_BR_aerodromes_public,SBLE,BA0006,HORÁCIO DE MATTOS,LENÇÓIS,BA,506.0,VFR Diurno/Noturno,,,-12.482222222222223,-41.276944444444446,1,140.0,,,1992.0,,,30.0,,,heliport
2025_08_22_BR_aerodromes_public,SBLJ,SC0007,LAGES,LAGES,SC,934.0,VFR Diurno/Noturno e IFR Diurno/Noturno,,,-27.78222222222222,-50.281666666666666,1,170.0,,,1532.0,,,30.0,,,heliport
2025_08_22_BR_aerodromes_public,SBLO,PR0003,GOVERNADOR JOSÉ RICHA,LONDRINA,PR,569.0,VFR Diurno/Noturno e IFR Diurno/Noturno,,,-23.330277777777777,-51.13666666666666,1,130.0,,,2100.0,,,45.0,,,heliport
2025_08_22_BR_aerodromes_public,SBLP,BA0037,BOM JESUS DA LAPA,BOM JESUS DA LAPA,BA,443.0,VFR Diurno,,,-13.261388888888888,-43.4075,1,180.0,,,1211.0,,,30.0,,,heliport
2025_08_22_BR_aerodromes_public,SBMA,PA0004,JOÃO CORRÊA DA ROCHA,MARABÁ,PA,109.0,VFR Diurno/Noturno e IFR Diurno/Noturno,,,-5.368055555555555,-49.13805555555555,1,70.0,,,2000.0,,,45.0,,,heliport
2025_08_22_BR_aerodromes_public,SBMD,PA0009,MONTE DOURADO,ALMEIRIM,PA,206.0,VFR Diurno,,,-0.8897222222222222,-52.602222222222224,1,80.0,,,1800.0,,,30.0,,,heliport
2025_08_22_BR_aerodromes_public,SBME,RJ0004,AEROPORTO DE MACAÉ/RIO DE JANEIRO - JOAQUIM DE AZEVEDO MANCEBO,MACAÉ,RJ,3.0,VFR Diurno/Noturno e IFR Diurno/Noturno,,,-22.341666666666665,-41.76611111111111,2,50.0,60.0,,1410.0,899.0,,30.0,30.0,,heliport
2025_08_22_BR_aerodromes_public,SBMG,PR0004,SÍLVIO NAME JÚNIOR,MARINGÁ,PR,549.0,VFR Diurno/Noturno e IFR Diurno/Noturno,,,-23.476388888888888,-52.01777777777777,1,100.0,,,2380.0,,,45.0,,,heliport
2025_08_22_BR_aerodromes_public,SBMK,MG0004,MÁRIO RIBEIRO,MONTES CLAROS,MG,668.0,VFR Diurno/Noturno e IFR Diurno/Noturno,,,-16.70611111111111,-43.82194444444445,1,120.0,,,2100.0,,,45.0,,,heliport
2025_08_22_BR_aerodromes_public,SBML,SP0014,FRANK MILOYE MILENKOVICH,MARÍLIA,SP,650.0,VFR Diurno/Noturno e IFR Diurno/Noturno,,,-22.196944444444444,-49.92638888888889,1,30.0,,,1700.0,,,35.0,,,heliport
2025_08_22_BR_aerodromes_public,SBMO,AL0001,ZUMBI DOS PALMARES,MACEIÓ,AL,118.0,VFR Diurno/Noturno e IFR Diurno/Noturno,,,-9.510833333333334,-35.791666666666664,1,120.0,,,2602.0,,,45.0,,,heliport
2025_08_22_BR_aerodromes_public,SBMQ,AP0001,ALBERTO ALCOLUMBRE,MACAPÁ,AP,17.0,VFR Diurno/Noturno e IFR Diurno/Noturno,,,0.050555555555555555,-51.07222222222222,1,80.0,,,2100.0,,,45.0,,,heliport
2025_08_22_BR_aerodromes_public,SBMS,RN0002,DIX-SEPT ROSADO,MOSSORÓ,RN,23.0,VFR Diurno/Noturno e IFR Diurno/Noturno,,,-5.195833333333334,-37.361666666666665,1,50.0,,,1900.0,,,30.0,,,heliport
2025_08_22_BR_aerodromes_public,SBMT,SP0007,CAMPO DE MARTE,SÃO PAULO,SP,723.0,VFR Diurno/Noturno,,,-23.509166666666665,-46.6375,1,120.0,,,1600.0,,,45.0,,,heliport
2025_08_22_BR_aerodromes_public,SBMY,AM0015,MANICORÉ,MANICORÉ,AM,53.0,VFR Diurno,,,-5.811111111111111,-61.27833333333333,1,50.0,,,1265.0,,,30.0,,,heliport
2025_08_22_BR_aerodromes_public,SBNF,SC0002,MINISTRO VICTOR KONDER,NAVEGANTES,SC,5.0,VFR Diurno/Noturno e IFR Diurno/Noturno,,,-26.878611111111113,-48.65083333333333,1,80.0,,,1800.0,,,45.0,,,heliport
2025_08_22_BR_aerodromes_public,SBNM,RS0008,SANTO ÂNGELO,SANTO ÂNGELO,RS,322.0,VFR Diurno/Noturno e IFR Diurno/Noturno,,,-28.281666666666666,-54.16833333333333,1,120.0,,,1625.0,,,30.0,,,heliport
2025_08_22_BR_aerodromes_public,SBOI,AP0002,OIAPOQUE,OIAPOQUE,AP,16.0,VFR Diurno/Noturno e IFR Diurno/Noturno,,,3.854166666666667,-51.79722222222222,1,30.0,,,1500.0,,,30.0,,,heliport
2025_08_22_BR_aerodromes_public,SBPA,RS0001,SALGADO FILHO,PORTO ALEGRE,RS,9.0,VFR Diurno/Noturno e IFR Diurno/Noturno,,,-29.994722222222222,-51.17111111111111,1,110.0,,,3200.0,,,45.0,,,heliport
2025_08_22_BR_aerodromes_public,SBPB,PI0002,PREFEITO DOUTOR JOÃO SILVA FILHO,PARNAÍBA,PI,5.0,VFR Diurno/Noturno,,,-2.893333333333333,-41.73027777777778,1,100.0,,,2500.0,,,45.0,,,heliport
2025_08_22_BR_aerodromes_public,SBPC,MG0018,EMBAIXADOR WALTHER MOREIRA SALLES,POÇOS DE CALDAS,MG,1261.0,VFR Diurno e IFR Diurno,,,-21.842499999999998,-46.56944444444445,1,90.0,,,1515.0,,,30.0,,,heliport
2025_08_22_BR_aerodromes_public,SBPF,RS0006,LAURO KURTZ,PASSO FUNDO,RS,725.0,VFR Diurno/Noturno e IFR Diurno/Noturno,,,-28.24416666666667,-52.32833333333333,1,90.0,,,1680.0,,,30.0,,,heliport
2025_08_22_BR_aerodromes_public,SBPJ,TO0001,BRIGADEIRO LYSIAS RODRIGUES,PALMAS,TO,236.0,VFR Diurno/Noturno e IFR Diurno/Noturno,,,-10.29,-48.35777777777778,1,140.0,,,2500.0,,,45.0,,,heliport
2025_08_22_BR_aerodromes_public,SBPK,RS0005,JOÃO SIMÕES LOPES NETO,PELOTAS,RS,18.0,VFR Diurno/Noturno e IFR Diurno/Noturno,,,-31.71611111111111,-52.33111111111111,1,70.0,,,1823.0,,,42.0,,,heliport
2025_08_22_BR_aerodromes_public,SBPL,PE0002,AEROPORTO INTERNACIONAL SENADOR NILO COELHO,PETROLINA,PE,384.0,VFR Diurno/Noturno e IFR Diurno/Noturno,,,-9.3675,-40.56361111111111,1,130.0,,,3250.0,,,45.0,,,heliport
2025_08_22_BR_aerodromes_public,SDPE,TO0003,PORTO NACIONAL,PORTO NACIONAL,TO,270.0,VFR Diurno,,,-10.718055555555555,-48.39888888888889,1,50.0,,,1700.0,,,30.0,,,heliport
2025_08_22_BR_aerodromes_public,SBPP,MS0005,PONTA PORÃ,PONTA PORÃ,MS,657.0,VFR Diurno e IFR Diurno/Noturno,,,-22.549722222222226,-55.70305555555556,1,40.0,,,2000.0,,,45.0,,,heliport
2025_08_22_BR_aerodromes_public,SBNV,GO0002,AERÓDROMO NACIONAL DE AVIAÇÃO,GOIÂNIA,GO,824.0,VFR Diurno/Noturno,,,-16.625555555555557,-49.349444444444444,1,140.0,,,1330.0,,,22.0,,,heliport
2025_08_22_BR_aerodromes_public,SBPS,BA0002,PORTO SEGURO,PORTO SEGURO,BA,51.0,VFR Diurno/Noturno e IFR Diurno/Noturno,,,-16.438055555555557,-39.07777777777778,1,100.0,,,2000.0,,,45.0,,,heliport
2025_08_22_BR_aerodromes_public,SBPV,RO0001,GOVERNADOR JORGE TEIXEIRA DE OLIVEIRA,PORTO VELHO,RO,90.0,VFR Diurno/Noturno e IFR Diurno/Noturno,,,-8.71361111111111,-63.90277777777778,1,10.0,,,2400.0,,,45.0,,,heliport
2025_08_22_BR_aerodromes_public,SBRB,AC0001,PLÁCIDO DE CASTRO,RIO BRANCO,AC,193.0,VFR Diurno/Noturno e IFR Diurno/Noturno,,,-9.868333333333334,-67.89805555555556,1,60.0,,,2158.0,,,45.0,,,heliport
2025_08_22_BR_aerodromes_public,SBRD,MT0004,RONDONÓPOLIS - MAESTRO MARINHO FRANCO,RONDONÓPOLIS,MT,447.0,VFR Diurno/Noturno e IFR Diurno/Noturno,,,-16.588055555555556,-54.72166666666667,1,20.0,,,1850.0,,,30.0,,,heliport
2025_08_22_BR_aerodromes_public,SBRF,PE0001,AEROPORTO INTERNACIONAL RECIFE/GUARARAPES - GILBERTO FREYRE,RECIFE,PE,10.0,VFR Diurno/Noturno e IFR Diurno/Noturno,,,-8.12638888888889,-34.922777777777775,1,180.0,,,2751.0,,,45.0,,,heliport
2025_08_22_BR_aerodromes_public,SBRJ,RJ0002,SANTOS DUMONT,RIO DE JANEIRO,RJ,3.0,VFR Diurno/Noturno e IFR Diurno/Noturno,,,-22.91,-43.1625,2,20.0,20.0,,1323.0,1260.0,,42.0,30.0,,heliport
2025_08_22_BR_aerodromes_public,SBRP,SP0004,LEITE LOPES,RIBEIRÃO PRETO,SP,550.0,VFR Diurno/Noturno e IFR Diurno/Noturno,,,-21.136388888888888,-47.776666666666664,1,180.0,,,2100.0,,,45.0,,,heliport
2025_08_22_BR_aerodromes_public,SBSG,RN0001,AEROPORTO INTERNACIONAL DO RIO GRANDE DO NORTE / SÃO GONÇALO DO AMARANTE - GOVERNADOR ALUIZIO ALVES,NATAL,RN,83.0,VFR Diurno/Noturno e IFR Diurno/Noturno,,,-5.768888888888889,-35.36638888888889,1,120.0,,,3000.0,,,60.0,,,heliport
2025_08_22_BR_aerodromes_public,SBSJ,SP0008,PROFESSOR URBANO ERNESTO STUMPF,SÃO JOSÉ DOS CAMPOS,SP,647.0,VFR Diurno/Noturno e IFR Diurno/Noturno,,,-23.228888888888886,-45.87111111111111,1,160.0,,,2675.0,,,45.0,,,heliport
2025_08_22_BR_aerodromes_public,SBSL,MA0001,MARECHAL CUNHA MACHADO,SÃO LUÍS,MA,54.0,VFR Diurno/Noturno e IFR Diurno/Noturno,,,-2.5869444444444447,-44.236111111111114,1,60.0,,,2385.0,,,45.0,,,heliport
2025_08_22_BR_aerodromes_public,SBSM,RS0003,SANTA MARIA,SANTA MARIA,RS,88.0,VFR Diurno/Noturno e IFR Diurno/Noturno,,,-29.710833333333333,-53.69222222222222,2,110.0,20.0,,2694.0,1505.0,,45.0,30.0,,heliport
2025_08_22_BR_aerodromes_public,SBSN,PA0002,MAESTRO WILSON FONSECA,SANTARÉM,PA,60.0,VFR Diurno/Noturno e IFR Diurno/Noturno,,,-2.424722222222222,-54.78583333333333,1,100.0,,,2400.0,,,45.0,,,heliport
2025_08_22_BR_aerodromes_public,SBSP,SP0001,SÃO PAULO/CONGONHAS - DEPUTADO FREITAS NOBRE,SÃO PAULO,SP,802.0,VFR Diurno/Noturno e IFR Diurno/Noturno,,,-23.62611111111111,-46.656388888888884,2,170.0,170.0,,1883.0,1495.0,,45.0,45.0,,heliport
2025_08_22_BR_aerodromes_public,SBSR,SP0006,PROFESSOR ERIBELTO MANOEL REINO,SÃO JOSÉ DO RIO PRETO,SP,544.0,VFR Diurno/Noturno e IFR Diurno/Noturno,,,-20.81722222222222,-49.40694444444444,1,70.0,,,1640.0,,,35.0,,,heliport
2025_08_22_BR_aerodromes_public,SBSV,BA0001,DEPUTADO LUÍS EDUARDO MAGALHÃES,SALVADOR,BA,20.0,VFR Diurno/Noturno e IFR Diurno/Noturno,,,-12.908611111111112,-38.322500000000005,2,100.0,170.0,,3003.0,1518.0,,45.0,45.0,,heliport
2025_08_22_BR_aerodromes_public,SBTB,PA0012,TROMBETAS,ORIXIMINÁ,PA,51.0,VFR Diurno/Noturno e IFR Diurno/Noturno,,,-1.4897222222222224,-56.39694444444444,1,90.0,,,1600.0,,,30.0,,,heliport
2025_08_22_BR_aerodromes_public,SBTD,PR0008,LUIZ DALCANALE FILHO,TOLEDO,PR,562.0,VFR Diurno/Noturno e IFR Diurno/Noturno,,,-24.685277777777777,-53.69638888888888,1,20.0,,,1670.0,,,30.0,,,heliport
2025_08_22_BR_aerodromes_public,SBTE,PI0001,SENADOR PETRÔNIO PORTELLA,TERESINA,PI,67.0,VFR Diurno/Noturno e IFR Diurno/Noturno,,,-5.060555555555555,-42.824444444444445,1,20.0,,,2118.0,,,45.0,,,heliport
2025_08_22_BR_aerodromes_public,SBTF,AM0004,PREFEITO ORLANDO MARINHO,TEFÉ,AM,57.0,VFR Diurno/Noturno e IFR Diurno/Noturno,,,-3.3802777777777777,-64.72527777777778,1,150.0,,,2000.0,,,45.0,,,heliport
2025_08_22_BR_aerodromes_public,SBTG,MS0006,TRÊS LAGOAS,TRÊS LAGOAS,MS,323.0,VFR Diurno/Noturno,,,-20.75138888888889,-51.680277777777775,1,70.0,,,2000.0,,,30.0,,,heliport
2025_08_22_BR_aerodromes_public,SBTK,AC0004,TARAUACÁ,TARAUACÁ,AC,192.0,VFR Diurno,,,-8.155277777777778,-70.78305555555555,1,150.0,,,1200.0,,,22.0,,,heliport
2025_08_22_BR_aerodromes_public,SSTE,RS0011,TORRES,TORRES,RS,9.0,VFR Diurno/Noturno,,,-29.415,-49.809999999999995,1,60.0,,,1507.0,,,30.0,,,heliport
2025_08_22_BR_aerodromes_public,SBTT,AM0005,TABATINGA,TABATINGA,AM,80.0,VFR Diurno/Noturno e IFR Diurno/Noturno,,,-4.250555555555556,-69.93777777777778,1,120.0,,,2150.0,,,33.0,,,heliport
2025_08_22_BR_aerodromes_public,SBTU,PA0007,TUCURUÍ,TUCURUÍ,PA,253.0,VFR Diurno/Noturno e IFR Diurno/Noturno,,,-3.776944444444444,-49.719722222222224,1,20.0,,,2000.0,,,45.0,,,heliport
2025_08_22_BR_aerodromes_public,SBUA,AM0003,SÃO GABRIEL DA CACHOEIRA,SÃO GABRIEL DA CACHOEIRA,AM,76.0,VFR Diurno e IFR Diurno,,,-0.14805555555555555,-66.98583333333333,1,50.0,,,2600.0,,,45.0,,,heliport
2025_08_22_BR_aerodromes_public,SBUF,BA0007,PAULO AFONSO,PAULO AFONSO,BA,269.0,VFR Diurno/Noturno,,,-9.401111111111112,-38.25111111111111,1,140.0,,,1800.0,,,45.0,,,heliport
2025_08_22_BR_aerodromes_public,SBUG,RS0012,RUBEM BERTA,URUGUAIANA,RS,78.0,VFR Diurno/Noturno e IFR Diurno/Noturno,,,-29.783333333333335,-57.036944444444444,1,100.0,,,1304.0,,,30.0,,,heliport
2025_08_22_BR_aerodromes_public,SBUL,MG0002,TEN CEL AVIADOR CÉSAR BOMBONATO,UBERLÂNDIA,MG,943.0,VFR Diurno/Noturno e IFR Diurno/Noturno,,,-18.88361111111111,-48.22527777777778,1,40.0,,,2100.0,,,45.0,,,heliport
2025_08_22_BR_aerodromes_public,SBUR,MG0009,MARIO DE ALMEIDA FRANCO,UBERABA,MG,809.0,VFR Diurno/Noturno e IFR Diurno/Noturno,,,-19.764722222222222,-47.96611111111111,1,170.0,,,1759.0,,,45.0,,,heliport
2025_08_22_BR_aerodromes_public,SBVG,MG0019,MAJOR BRIGADEIRO TROMPOWSKY,VARGINHA,MG,922.0,VFR Diurno e IFR Diurno/Noturno,,,-21.58888888888889,-45.473333333333336,1,40.0,,,2100.0,,,30.0,,,heliport
2025_08_22_BR_aerodromes_public,SBVH,RO0003,VILHENA,VILHENA,RO,615.0,VFR Diurno/Noturno e IFR Diurno/Noturno,,,-12.694444444444445,-60.098333333333336,1,30.0,,,2600.0,,,30.0,,,heliport
2025_08_22_BR_aerodromes_public,SBVT,ES0001,EURICO DE AGUIAR SALLES,VITÓRIA,ES,3.0,VFR Diurno/Noturno e IFR Diurno/Noturno,,,-20.258055555555554,-40.28638888888889,2,60.0,20.0,,1750.0,2058.0,,45.0,45.0,,heliport
2025_08_22_BR_aerodromes_public,SBZM,MG0006,PRESIDENTE ITAMAR FRANCO,GOIANÁ,MG,412.0,VFR Diurno e IFR Diurno/Noturno,,,-21.513055555555557,-43.17305555555555,1,80.0,,,2525.0,,,45.0,,,heliport
2025_08_22_BR_aerodromes_public,SDAA,SP0045,ARARAS,ARARAS,SP,685.0,VFR Diurno,,,-22.336944444444445,-47.358333333333334,1,120.0,,,1150.0,,,30.0,,,heliport
2025_08_22_BR_aerodromes_public,SDAD,SP0046,EVERALDO MORAES BARRETO,ADAMANTINA,SP,425.0,VFR Diurno,,,-21.69611111111111,-51.09638888888889,1,90.0,,,1240.0,,,18.0,,,heliport
2025_08_22_BR_aerodromes_public,SDAG,RJ0010,ANGRA DOS REIS,ANGRA DOS REIS,RJ,3.0,VFR Diurno,,,-22.975277777777777,-44.30722222222222,1,100.0,,,913.0,,,30.0,,,heliport
2025_08_22_BR_aerodromes_public,SDAI,SP0047,AMERICANA,AMERICANA,SP,611.0,VFR Diurno/Noturno,,,-22.755277777777778,-47.268055555555556,1,120.0,,,1100.0,,,18.0,,,heliport
2025_08_22_BR_aerodromes_public,SDAM,SP0037,ESTADUAL DE CAMPOS DOS AMARAIS - PREFEITO FRANCISCO AMARAL,CAMPINAS,SP,612.0,VFR Diurno/Noturno,,,-22.859166666666667,-47.10805555555556,1,160.0,,,1650.0,,,30.0,,,heliport
2025_08_22_BR_aerodromes_public,SDAE,SP0053,SÃO PEDRO,SÃO PEDRO,SP,566.0,VFR Diurno,,,-22.58361111111111,-47.89611111111111,1,140.0,,,1000.0,,,25.0,,,heliport
2025_08_22_BR_aerodromes_public,SDBB,SP0018,BEBEDOURO,BEBEDOURO,SP,592.0,VFR Diurno,,,-20.900277777777777,-48.47361111111111,1,130.0,,,1500.0,,,23.0,,,heliport
2025_08_22_BR_aerodromes_public,SDBK,SP0019,TANCREDO DE ALMEIDA NEVES,BOTUCATU,SP,888.0,VFR Diurno/Noturno,,,-22.93777777777778,-48.46805555555556,1,10.0,,,1500.0,,,30.0,,,heliport
2025_08_22_BR_aerodromes_public,SDBY,SP0032,BARIRI,BARIRI,SP,493.0,VFR Diurno,,,-22.069166666666668,-48.70638888888889,1,110.0,,,1470.0,,,30.0,,,heliport
2025_08_22_BR_aerodromes_public,SDCA,SP0051,CAPÃO BONITO,CAPÃO BONITO,SP,714.0,VFR Diurno,,,-24.033611111111114,-48.356944444444444,1,160.0,,,1360.0,,,20.0,,,heliport
2025_08_22_BR_aerodromes_public,SDCO,SP0027,SOROCABA,SOROCABA,SP,635.0,VFR Diurno/Noturno,,,-23.477777777777778,-47.49,1,10.0,,,1630.0,,,30.0,,,heliport
2025_08_22_BR_aerodromes_public,SDDN,SP0020,PAULINO RIBEIRO DE ANDRADE,ANDRADINA,SP,380.0,VFR Diurno/Noturno,,,-20.925,-51.38194444444444,1,110.0,,,1500.0,,,30.0,,,heliport
2025_08_22_BR_aerodromes_public,SDDR,SP0021,DRACENA,DRACENA,SP,372.0,VFR Diurno/Noturno,,,-21.460555555555555,-51.606944444444444,1,90.0,,,1500.0,,,30.0,,,heliport
2025_08_22_BR_aerodromes_public,SDEP,SP0052,GERALDO MOACIR BORDON,PRESIDENTE EPITÁCIO,SP,297.0,VFR Diurno,,,-21.775,-52.14361111111111,1,60.0,,,1345.0,,,18.0,,,heliport
2025_08_22_BR_aerodromes_public,SDET,SP0067,TIETÊ,TIETÊ,SP,501.0,VFR Diurno,,,-23.104722222222225,-47.724444444444444,1,20.0,,,850.0,,,30.0,,,heliport
2025_08_22_BR_aerodromes_public,SDFD,SP0054,CORONEL AVIADOR CARLOS ORLEANS GUIMARÃES,FERNANDÓPOLIS,SP,499.0,VFR Diurno,,,-20.276666666666667,-50.21388888888889,1,80.0,,,1000.0,,,25.0,,,heliport
2025_08_22_BR_aerodromes_public,SDFX,BA0054,CASA NOVA,CASA NOVA,BA,405.0,VFR Diurno,,,-9.1575,-40.9375,1,120.0,,,1129.0,,,23.0,,,heliport
2025_08_22_BR_aerodromes_public,SDGC,SP0055,GARÇA,GARÇA,SP,664.0,VFR Diurno,,,-22.183611111111112,-49.65611111111111,1,10.0,,,1000.0,,,30.0,,,heliport
2025_08_22_BR_aerodromes_public,SDCG,AM0016,SENADORA EUNICE MICHILES,SÃO PAULO DE OLIVENÇA,AM,102.0,VFR Diurno,,,-3.4691666666666667,-68.92111111111112,1,40.0,,,1200.0,,,23.0,,,heliport
2025_08_22_BR_aerodromes_public,SDIM,SP0033,DR. ANTONIO RIBEIRO NOGUEIRA JÚNIOR,ITANHAÉM,SP,3.0,VFR Diurno/Noturno,,,-24.16472222222222,-46.785555555555554,1,150.0,,,1350.0,,,30.0,,,heliport
2025_08_22_BR_aerodromes_public,SDIV,SP0056,ITUVERAVA,ITUVERAVA,SP,623.0,VFR Diurno,,,-20.37527777777778,-47.76861111111111,1,170.0,,,1350.0,,,23.0,,,heliport
2025_08_22_BR_aerodromes_public,SDJC,SP0064,JABOTICABAL,JABOTICABAL,SP,615.0,VFR Diurno,,,-21.230833333333333,-48.285555555555554,1,70.0,,,960.0,,,23.0,,,heliport
2025_08_22_BR_aerodromes_public,SDJO,SP0057,SÃO JOAQUIM DA BARRA,SÃO JOAQUIM DA BARRA,SP,650.0,VFR Diurno,,,-20.593333333333334,-47.842222222222226,1,140.0,,,1374.0,,,23.0,,,heliport
2025_08_22_BR_aerodromes_public,SDJV,SP0035,SÃO JOÃO DA BOA VISTA,SÃO JOÃO DA BOA VISTA,SP,762.0,VFR Diurno/Noturno,,,-22.016666666666666,-46.84055555555556,1,40.0,,,1250.0,,,30.0,,,heliport
2025_08_22_BR_aerodromes_public,SDKJ,BA0025,FORMOSA DO RIO PRETO,FORMOSA DO RIO PRETO,BA,528.0,VFR Diurno,,,-11.021111111111113,-45.18722222222222,1,140.0,,,1236.0,,,18.5,,,heliport
2025_08_22_BR_aerodromes_public,SDIG,SP0038,IBITINGA,IBITINGA,SP,542.0,VFR Diurno,,,-21.747222222222224,-48.85583333333334,1,130.0,,,1200.0,,,18.0,,,heliport
2025_08_22_BR_aerodromes_public,SDLL,SP0048,YOLANDA PENTEADO,LEME,SP,627.0,VFR Diurno,,,-22.22583333333333,-47.380833333333335,1,90.0,,,1332.0,,,18.0,,,heliport
2025_08_22_BR_aerodromes_public,SDLP,SP0034,MUNICIPAL JOSÉ BOSO,LENÇÓIS PAULISTA,SP,621.0,VFR Diurno/Noturno,,,-22.578333333333333,-48.77444444444444,1,70.0,,,1264.0,,,20.0,,,heliport
2025_08_22_BR_aerodromes_public,SDLY,SP0071,ARMANDO NATALI,MATÃO,SP,635.0,VFR Diurno,,,-21.624166666666667,-48.350833333333334,1,160.0,,,750.0,,,18.0,,,heliport
2025_08_22_BR_aerodromes_public,SBMI,RJ0009,MARICÁ,MARICÁ,RJ,2.0,VFR Diurno/Noturno,,,-22.918055555555558,-42.82888888888889,1,90.0,,,1190.0,,,30.0,,,heliport
2025_08_22_BR_aerodromes_public,SDKK,SP0058,MOCOCA,MOCOCA,SP,651.0,VFR Diurno,,,-21.487222222222222,-47.03388888888889,1,40.0,,,1000.0,,,30.0,,,heliport
2025_08_22_BR_aerodromes_public,SDMJ,SP0022,MOGI MIRIM,MOGI MIRIM,SP,695.0,VFR Diurno,,,-22.410833333333333,-46.90555555555555,1,120.0,,,1500.0,,,30.0,,,heliport
2025_08_22_BR_aerodromes_public,SDMO,SP0068,MONTE ALTO,MONTE ALTO,SP,750.0,VFR Diurno,,,-21.258055555555554,-48.524166666666666,1,170.0,,,850.0,,,20.0,,,heliport
2025_08_22_BR_aerodromes_public,SDNH,SP0060,NOVO HORIZONTE,NOVO HORIZONTE,SP,465.0,VFR Diurno,,,-21.497777777777777,-49.23444444444444,1,130.0,,,1000.0,,,20.0,,,heliport
2025_08_22_BR_aerodromes_public,SDNM,MT0047,BRIGADEIRO EDUARDO GOMES,NOVA MUTUM,MT,430.0,VFR Diurno,,,-13.821111111111112,-56.03861111111111,1,50.0,,,1541.0,,,24.0,,,heliport
2025_08_22_BR_aerodromes_public,SDNO,SP0061,NELSON GARÓFALO,SÃO MANUEL,SP,734.0,VFR Diurno/Noturno,,,-22.69611111111111,-48.57611111111112,1,140.0,,,1000.0,,,20.0,,,heliport
2025_08_22_BR_aerodromes_public,SDOU,SP0023,JORNALISTA BENEDITO PIMENTEL,OURINHOS,SP,462.0,VFR Diurno/Noturno,,,-22.973611111111108,-49.91138888888889,1,160.0,,,1500.0,,,30.0,,,heliport
2025_08_22_BR_aerodromes_public,SDMH,SP0059,MIRASSOL,MIRASSOL,SP,584.0,VFR Diurno,,,-20.807222222222222,-49.486111111111114,1,70.0,,,1000.0,,,30.0,,,heliport
2025_08_22_BR_aerodromes_public,SDOV,GO0005,MOZARLÂNDIA,MOZARLÂNDIA,GO,328.0,VFR Diurno,,,-14.76888888888889,-50.565,1,170.0,,,1500.0,,,30.0,,,heliport
2025_08_22_BR_aerodromes_public,SDPD,SP0072,PINDAMONHANGABA,PINDAMONHANGABA,SP,574.0,VFR Diurno,,,-22.94388888888889,-45.43194444444444,1,60.0,,,750.0,,,30.0,,,heliport
2025_08_22_BR_aerodromes_public,SDPN,SP0024,PENÁPOLIS,PENÁPOLIS,SP,412.0,VFR Diurno/Noturno,,,-21.41,-50.03361111111111,1,150.0,,,1500.0,,,30.0,,,heliport
2025_08_22_BR_aerodromes_public,SDPV,SP0040,PRESIDENTE VENCESLAU,PRESIDENTE VENCESLAU,SP,445.0,VFR Diurno,,,-21.893333333333334,-51.88444444444444,1,140.0,,,1200.0,,,30.0,,,heliport
2025_08_22_BR_aerodromes_public,SDPW,SP0041,PEDRO MORGANTI,PIRACICABA,SP,584.0,VFR Diurno/Noturno,,,-22.711944444444445,-47.61805555555556,1,170.0,,,1200.0,,,30.0,,,heliport
2025_08_22_BR_aerodromes_public,SDPY,SP0066,PIRASSUNUNGA,PIRASSUNUNGA,SP,683.0,VFR Diurno,,,-22.02777777777778,-47.42166666666667,1,20.0,,,860.0,,,30.0,,,heliport
2025_08_22_BR_aerodromes_public,SDRK,SP0049,RIO CLARO,RIO CLARO,SP,600.0,VFR Diurno,,,-22.43166666666667,-47.5625,1,30.0,,,1180.0,,,40.0,,,heliport
2025_08_22_BR_aerodromes_public,SDRR,SP0028,AVARÉ-ARANDU,AVARÉ,SP,798.0,VFR Diurno/Noturno,,,-23.092222222222222,-48.98722222222222,1,150.0,,,1480.0,,,30.0,,,heliport
2025_08_22_BR_aerodromes_public,SDRS,RJ0007,RESENDE,RESENDE,RJ,402.0,VFR Diurno,,,-22.47861111111111,-44.48166666666667,1,80.0,,,1300.0,,,30.0,,,heliport
2025_08_22_BR_aerodromes_public,SDSC,SP0029,MÁRIO PEREIRA LOPES,SÃO CARLOS,SP,807.0,VFR Diurno/Noturno,,,-21.87638888888889,-47.90333333333333,1,20.0,,,1720.0,,,45.0,,,heliport
2025_08_22_BR_aerodromes_public,SBSO,MT0005,REGIONAL DE SORRISO ADOLINO BEDIN,SORRISO,MT,386.0,VFR Diurno/Noturno e IFR Diurno/Noturno,,,-12.472777777777777,-55.66888888888889,1,50.0,,,1700.0,,,30.0,,,heliport
2025_08_22_BR_aerodromes_public,SDOW,PA0021,OURILÂNDIA DO NORTE,OURILÂNDIA DO NORTE,PA,229.0,VFR Diurno/Noturno,,,-6.763055555555556,-51.05,1,140.0,,,1200.0,,,30.0,,,heliport
2025_08_22_BR_aerodromes_public,SDTF,SP0050,TATUÍ,TATUÍ,SP,635.0,VFR Diurno,,,-23.331944444444446,-47.88,1,140.0,,,1300.0,,,30.0,,,heliport
2025_08_22_BR_aerodromes_public,SDTI,SP0073,TUPI PAULISTA,TUPI PAULISTA,SP,365.0,VFR Diurno,,,-21.393333333333334,-51.600833333333334,1,60.0,,,750.0,,,23.0,,,heliport
2025_08_22_BR_aerodromes_public,SDTK,RJ0011,PARATY,PARATY,RJ,3.0,VFR Diurno,,,-23.223888888888887,-44.723333333333336,1,100.0,,,850.0,,,23.0,,,heliport
2025_08_22_BR_aerodromes_public,SDTP,SP0025,JOSÉ VICENTE FARIA LIMA,TUPÃ,SP,550.0,VFR Diurno/Noturno,,,-21.89,-50.505833333333335,1,60.0,,,1500.0,,,35.0,,,heliport
2025_08_22_BR_aerodromes_public,SDUB,SP0065,ESTADUAL GASTÃO MADEIRA,UBATUBA,SP,3.0,VFR Diurno,,,-23.441388888888888,-45.07611111111112,1,90.0,,,940.0,,,30.0,,,heliport
2025_08_22_BR_aerodromes_public,SDUN,RJ0008,ITAPERUNA,ITAPERUNA,RJ,110.0,VFR Diurno,,,-21.219166666666666,-41.87583333333333,1,70.0,,,1200.0,,,28.0,,,heliport
2025_08_22_BR_aerodromes_public,SDTB,SP0069,ATIBAIA,ATIBAIA,SP,797.0,VFR Diurno,,,-23.128333333333334,-46.57472222222223,1,20.0,,,1057.0,,,30.0,,,heliport
2025_08_22_BR_aerodromes_public,SDVE,SP0070,VERA CRUZ,VERA CRUZ,SP,640.0,VFR Diurno,,,-22.230277777777776,-49.816944444444445,1,150.0,,,950.0,,,20.0,,,heliport
2025_08_22_BR_aerodromes_public,SDVG,SP0026,DOMINGOS PIGNATARI,VOTUPORANGA,SP,511.0,VFR Diurno/Noturno,,,-20.45722222222222,-50.0025,1,50.0,,,1500.0,,,30.0,,,heliport
2025_08_22_BR_aerodromes_public,SDWQ,PA0027,ALENQUER,ALENQUER,PA,31.0,VFR Diurno,,,-1.9169444444444443,-54.72277777777778,1,100.0,,,1000.0,,,23.0,,,heliport
2025_08_22_BR_aerodromes_public,SDXF,GO0020,ALTO PARAÍSO DE GOIÁS,ALTO PARAÍSO DE GOIÁS,GO,1339.0,VFR Diurno,,,-14.119166666666667,-47.530277777777776,1,90.0,,,1080.0,,,30.0,,,heliport
2025_08_22_BR_aerodromes_public,SDXJ,MS0017,COSTA RICA,COSTA RICA,MS,738.0,VFR Diurno,,,-18.49138888888889,-53.16833333333333,1,90.0,,,1300.0,,,23.0,,,heliport
2025_08_22_BR_aerodromes_public,SDZG,CE0008,PEDRO TEIXEIRA CASTELO REGIONAL TAUÁ,TAUÁ,CE,444.0,VFR Diurno/Noturno,,,-5.933333333333334,-40.2975,1,90.0,,,1200.0,,,30.0,,,heliport
2025_08_22_BR_aerodromes_public,SIBU,PB0012,JERÔNIMO SÉRGIO ROSADO MAIA,CATOLÉ DO ROCHA,PB,272.0,VFR Diurno,,,-6.3625,-37.75527777777778,1,110.0,,,1000.0,,,18.0,,,heliport
2025_08_22_BR_aerodromes_public,SIBW,PB0008,CONCEIÇÃO,CONCEIÇÃO,PB,370.0,VFR Diurno,,,-7.5625,-38.4975,1,80.0,,,1000.0,,,27.0,,,heliport
2025_08_22_BR_aerodromes_public,SDUQ,SP0042,PARAGUAÇU PAULISTA,PARAGUAÇU PAULISTA,SP,486.0,VFR Diurno,,,-22.426944444444445,-50.606944444444444,1,50.0,,,1199.0,,,26.0,,,heliport
2025_08_22_BR_aerodromes_public,SIBZ,PB0010,ITAPORANGA,ITAPORANGA,PB,292.0,VFR Diurno,,,-7.311111111111111,-38.11361111111111,1,140.0,,,1184.0,,,24.0,,,heliport
2025_08_22_BR_aerodromes_public,SICB,PB0007,PEDRO SIMÕES PIMENTA,CUITÉ,PB,652.0,VFR Diurno,,,-6.4875,-36.14,1,100.0,,,1150.0,,,30.0,,,heliport
2025_08_22_BR_aerodromes_public,SILC,MT0025,AEROPORTO MUNICIPAL BOM FUTURO ,LUCAS DO RIO VERDE,MT,414.0,VFR Diurno/Noturno,,,-13.037777777777778,-55.95027777777778,1,80.0,,,1730.0,,,30.0,,,heliport
2025_08_22_BR_aerodromes_public,SIMK,SP0011,TENENTE LUND PRESSOTO,FRANCA,SP,1003.0,VFR Diurno/Noturno,,,-20.592222222222222,-47.38305555555556,1,60.0,,,2000.0,,,30.0,,,heliport
2025_08_22_BR_aerodromes_public,SIZX,MT0018,JUARA SUL,JUARA,MT,302.0,VFR Diurno,,,-11.296666666666667,-57.54888888888889,1,110.0,,,1200.0,,,30.0,,,heliport
2025_08_22_BR_aerodromes_public,SIBY,PB0009,LOURIVAL NUNES DE FARIAS,MONTEIRO,PB,622.0,VFR Diurno,,,-7.878333333333334,-37.13666666666666,1,140.0,,,1140.0,,,30.0,,,heliport
2025_08_22_BR_aerodromes_public,SJAU,TO0007,ARAGUACEMA,ARAGUACEMA,TO,207.0,VFR Diurno,,,-8.837777777777779,-49.55777777777777,1,120.0,,,1400.0,,,30.0,,,heliport
2025_08_22_BR_aerodromes_public,SJBY,MA0007,JOÃO SILVA,SANTA INÊS,MA,21.0,VFR Diurno,,,-3.654444444444444,-45.34527777777778,1,60.0,,,1500.0,,,30.0,,,heliport
2025_08_22_BR_aerodromes_public,SBJA,SC0005,REGIONAL SUL,JAGUARUNA,SC,35.0,VFR Diurno/Noturno e IFR Diurno/Noturno,,,-28.67527777777778,-49.059444444444445,1,50.0,,,2499.0,,,30.0,,,heliport
2025_08_22_BR_aerodromes_public,SJOG,RO0008,ARIQUEMES,ARIQUEMES,RO,142.0,VFR Diurno,,,-9.880555555555556,-63.04722222222222,1,30.0,,,1306.0,,,18.0,,,heliport
2025_08_22_BR_aerodromes_public,SJQN,GO0006,QUIRINÓPOLIS,QUIRINÓPOLIS,GO,586.0,VFR Diurno/Noturno,,,-18.44611111111111,-50.409166666666664,1,130.0,,,1500.0,,,30.0,,,heliport
2025_08_22_BR_aerodromes_public,SJRG,RS0013,REGIONAL DE RIO GRANDE,RIO GRANDE,RS,6.0,VFR Diurno/Noturno,,,-32.08361111111111,-52.16777777777777,1,60.0,,,1900.0,,,30.0,,,heliport
2025_08_22_BR_aerodromes_public,SJGU,TO0005,ARAGUATINS,ARAGUATINS,TO,125.0,VFR Diurno,,,-5.685833333333334,-48.11416666666667,1,120.0,,,1500.0,,,30.0,,,heliport
2025_08_22_BR_aerodromes_public,SJTS,PA0028,TERRA SANTA,TERRA SANTA,PA,25.0,VFR Diurno,,,-2.072777777777778,-56.48888888888889,1,120.0,,,1000.0,,,23.0,,,heliport
2025_08_22_BR_aerodromes_public,SJZA,PB0004,PEDRO VIEIRA MOREIRA,CAJAZEIRAS,PB,335.0,VFR Diurno/Noturno,,,-6.882777777777778,-38.615833333333335,1,120.0,,,1600.0,,,30.0,,,heliport
2025_08_22_BR_aerodromes_public,SNAB,PE0009,ARARIPINA,ARARIPINA,PE,740.0,VFR Diurno/Noturno,,,-7.586388888888888,-40.53527777777778,1,130.0,,,1247.0,,,27.0,,,heliport
2025_08_22_BR_aerodromes_public,SJVO,GO0030,ARAGARÇAS,ARAGARÇAS,GO,323.0,VFR Diurno,,,-15.899444444444445,-52.240833333333335,1,100.0,,,1322.0,,,30.0,,,heliport
2025_08_22_BR_aerodromes_public,SNAE,PE0007,ARCOVERDE,ARCOVERDE,PE,648.0,VFR Diurno,,,-8.407777777777778,-37.08833333333334,1,150.0,,,1300.0,,,28.0,,,heliport
2025_08_22_BR_aerodromes_public,SNAL,AL0003,ARAPIRACA,ARAPIRACA,AL,270.0,VFR Diurno/Noturno,,,-9.77638888888889,-36.63055555555555,1,100.0,,,930.0,,,18.0,,,heliport
2025_08_22_BR_aerodromes_public,SNAP,MG0021,JANAÚBA,JANAÚBA,MG,532.0,VFR Diurno,,,-15.731944444444444,-43.323055555555555,1,100.0,,,1500.0,,,30.0,,,heliport
2025_08_22_BR_aerodromes_public,SNAG,MG0020,ARAGUARI,ARAGUARI,MG,947.0,VFR Diurno,,,-18.668055555555558,-48.19027777777777,1,50.0,,,1500.0,,,30.0,,,heliport
2025_08_22_BR_aerodromes_public,SNAS,MG0022,TRÊS MARIAS,TRÊS MARIAS,MG,786.0,VFR Diurno,,,-18.224999999999998,-45.190555555555555,1,60.0,,,1500.0,,,45.0,,,heliport
2025_08_22_BR_aerodromes_public,SBAC,CE0004,AEROPORTO REGIONAL DE CANOA QUEBRADA DRAGÃO DO MAR,ARACATI,CE,36.0,VFR Diurno/Noturno e IFR Diurno/Noturno,,,-4.568611111111111,-37.80472222222222,1,90.0,,,1800.0,,,30.0,,,heliport
2025_08_22_BR_aerodromes_public,SNAX,SP0016,MARCELO PIRES HALZHAUSEN,ASSIS,SP,564.0,VFR Diurno/Noturno,,,-22.63861111111111,-50.45583333333334,1,120.0,,,1689.0,,,30.0,,,heliport
2025_08_22_BR_aerodromes_public,SNBA,SP0013,CHAFEI AMSEI,BARRETOS,SP,580.0,VFR Diurno/Noturno,,,-20.585555555555555,-48.59583333333334,1,90.0,,,1800.0,,,30.0,,,heliport
2025_08_22_BR_aerodromes_public,SNBC,MA0006,BARRA DO CORDA,BARRA DO CORDA,MA,160.0,VFR Diurno,,,-5.5025,-45.21611111111111,1,90.0,,,1250.0,,,30.0,,,heliport
2025_08_22_BR_aerodromes_public,SNAR,MG0033,CIRILO QUEIRÓZ,ALMENARA,MG,195.0,VFR Diurno/Noturno,,,-16.16583333333333,-40.68416666666666,1,70.0,,,1400.0,,,30.0,,,heliport
2025_08_22_BR_aerodromes_public,SNBI,MA0005,BACABAL,BACABAL,MA,21.0,VFR Diurno,,,-4.228055555555556,-44.819722222222225,1,100.0,,,1600.0,,,30.0,,,heliport
2025_08_22_BR_aerodromes_public,SNBM,MG0051,CRISTIANO FERREIRA VARELLA,MURIAÉ,MG,270.0,VFR Diurno,,,-21.12611111111111,-42.394444444444446,1,120.0,,,1140.0,,,23.0,,,heliport
2025_08_22_BR_aerodromes_public,SNBR,BA0011,DOM RICARDO WEBERBERGER,BARREIRAS,BA,747.0,VFR Diurno/Noturno,,,-12.079166666666666,-45.00944444444445,1,80.0,,,1600.0,,,30.0,,,heliport
2025_08_22_BR_aerodromes_public,SNBS,MA0010,BALSAS,BALSAS,MA,289.0,VFR Diurno,,,-7.525277777777777,-46.05333333333333,1,150.0,,,970.0,,,25.0,,,heliport
2025_08_22_BR_aerodromes_public,SNBX,BA0028,BARRA,BARRA,BA,389.0,VFR Diurno,,,-11.081111111111111,-43.1475,1,60.0,,,1300.0,,,20.0,,,heliport
2025_08_22_BR_aerodromes_public,SNBZ,BA0042,PARAMIRIM,PARAMIRIM,BA,639.0,VFR Diurno,,,-13.490555555555554,-42.22916666666667,1,180.0,,,1179.0,,,25.0,,,heliport
2025_08_22_BR_aerodromes_public,SNCA,MG0031,CAMPO BELO,CAMPO BELO,MG,970.0,VFR Diurno,,,-20.8925,-45.33555555555556,1,100.0,,,1420.0,,,30.0,,,heliport
2025_08_22_BR_aerodromes_public,SNCS,CE0009,CAMPOS SALES,CAMPOS SALES,CE,615.0,VFR Diurno/Noturno,,,-7.051666666666667,-40.358333333333334,1,110.0,,,1200.0,,,30.0,,,heliport
2025_08_22_BR_aerodromes_public,SNCT,MG0056,CARATINGA,UBAPORANGA,MG,599.0,VFR Diurno,,,-19.725277777777777,-42.11222222222222,1,20.0,,,1080.0,,,23.0,,,heliport
2025_08_22_BR_aerodromes_public,SNCX,ES0004,COLATINA,COLATINA,ES,153.0,VFR Diurno/Noturno,,,-19.4875,-40.57944444444445,1,150.0,,,1300.0,,,30.0,,,heliport
2025_08_22_BR_aerodromes_public,SNBG,ES0005,BAIXO GUANDU - AIMORÉS,BAIXO GUANDU,ES,80.0,VFR Diurno,,,-19.49888888888889,-41.04194444444444,1,110.0,,,1200.0,,,30.0,,,heliport
2025_08_22_BR_aerodromes_public,SNDC,PA0030,REDENÇÃO,REDENÇÃO,PA,207.0,VFR Diurno,,,-8.031111111111112,-49.97972222222222,1,60.0,,,1350.0,,,30.0,,,heliport
2025_08_22_BR_aerodromes_public,SNDT,MG0030,JUSCELINO KUBITSCHEK,DIAMANTINA,MG,1356.0,VFR Diurno/Noturno,,,-18.23222222222222,-43.650277777777774,1,30.0,,,1700.0,,,30.0,,,heliport
2025_08_22_BR_aerodromes_public,SNDV,MG0015,BRIGADEIRO ANTÔNIO CABRAL,DIVINÓPOLIS,MG,795.0,VFR Diurno/Noturno,,,-20.181944444444447,-44.87,1,170.0,,,1540.0,,,30.0,,,heliport
2025_08_22_BR_aerodromes_public,SNEB,PA0018,NAGIB DEMACHKI,PARAGOMINAS,PA,135.0,VFR Diurno,,,-3.019722222222222,-47.31638888888889,1,90.0,,,1450.0,,,30.0,,,heliport
2025_08_22_BR_aerodromes_public,SNCZ,MG0059,PONTE NOVA,PONTE NOVA,MG,572.0,VFR Diurno,,,-20.403055555555554,-42.916666666666664,1,70.0,,,1060.0,,,30.0,,,heliport
2025_08_22_BR_aerodromes_public,SNEE,RS0004,VACARIA NOVO,VACARIA,RS,914.0,VFR Diurno,,,-28.431944444444447,-51.022777777777776,1,130.0,,,2020.0,,,30.0,,,heliport
2025_08_22_BR_aerodromes_public,SNFE,MG0012,COMANDANTE PASCHOAL PATROCÍNIO FILHO,ALFENAS,MG,881.0,VFR Diurno/Noturno,,,-21.43138888888889,-45.93222222222222,1,40.0,,,1600.0,,,30.0,,,heliport
2025_08_22_BR_aerodromes_public,SNFO,MG0060,FORMIGA,FORMIGA,MG,1017.0,VFR Diurno,,,-20.39472222222222,-45.48305555555556,1,20.0,,,1117.0,,,23.0,,,heliport
2025_08_22_BR_aerodromes_public,SNFU,MG0063,FRUTAL,FRUTAL,MG,549.0,VFR Diurno/Noturno,,,-20.004722222222224,-48.95888888888889,1,70.0,,,1320.0,,,30.0,,,heliport
2025_08_22_BR_aerodromes_public,SNFX,PA0013,SÃO FÉLIX DO XINGU,SÃO FÉLIX DO XINGU,PA,183.0,VFR Diurno,,,-6.641388888888889,-51.952222222222225,1,140.0,,,1600.0,,,33.0,,,heliport
2025_08_22_BR_aerodromes_public,SNGA,ES0007,GUARAPARI,GUARAPARI,ES,9.0,VFR Diurno/Noturno,,,-20.64638888888889,-40.49166666666667,1,60.0,,,1088.0,,,28.0,,,heliport
2025_08_22_BR_aerodromes_public,SNGB,PI0011,GILBUÉS,GILBUÉS,PI,450.0,VFR Diurno,,,-9.83361111111111,-45.367222222222225,1,90.0,,,1000.0,,,30.0,,,heliport
2025_08_22_BR_aerodromes_public,SNGD,PI0005,GUADALUPE,GUADALUPE,PI,180.0,VFR Diurno,,,-6.783055555555555,-43.58083333333334,1,150.0,,,1485.0,,,30.0,,,heliport
2025_08_22_BR_aerodromes_public,SNGG,PI0007,BOM JESUS DO GURGUÉIA,BOM JESUS,PI,338.0,VFR Diurno,,,-9.059444444444445,-44.369166666666665,1,160.0,,,1200.0,,,20.0,,,heliport
2025_08_22_BR_aerodromes_public,SNGI,BA0009,AERÓDROMO DE GUANAMBI,GUANAMBI,BA,553.0,VFR Diurno/Noturno e IFR Diurno/Noturno,,,-14.208055555555555,-42.74611111111111,1,140.0,,,1700.0,,,30.0,,,heliport
2025_08_22_BR_aerodromes_public,SNED,BA0023,SÓCRATES REZENDE,CANAVIEIRAS,BA,6.0,VFR Diurno,,,-15.66638888888889,-38.95527777777778,1,140.0,,,1340.0,,,30.0,,,heliport
2025_08_22_BR_aerodromes_public,SNGX,MG0023,GUAXUPÉ,GUAXUPÉ,MG,849.0,VFR Diurno/Noturno,,,-21.326666666666668,-46.73027777777778,1,120.0,,,1500.0,,,30.0,,,heliport
2025_08_22_BR_aerodromes_public,SNHS,PE0005,SANTA MAGALHÃES,SERRA TALHADA,PE,470.0,VFR Diurno/Noturno,,,-8.061388888888889,-38.328611111111115,1,130.0,,,1800.0,,,30.0,,,heliport
2025_08_22_BR_aerodromes_public,SNIB,BA0045,ITABERABA,ITABERABA,BA,283.0,VFR Diurno,,,-12.499722222222221,-40.27027777777778,1,140.0,,,1200.0,,,30.0,,,heliport
2025_08_22_BR_aerodromes_public,SNIC,BA0019,IRECÊ,IRECÊ,BA,784.0,VFR Diurno/Noturno,,,-11.34,-41.846944444444446,1,110.0,,,1400.0,,,30.0,,,heliport
2025_08_22_BR_aerodromes_public,SNIE,BA0020,CAETITÉ,CAETITÉ,BA,976.0,VFR Diurno,,,-14.012222222222222,-42.49388888888889,1,90.0,,,1365.0,,,20.0,,,heliport
2025_08_22_BR_aerodromes_public,SNIG,CE0007,IGUATU,IGUATU,CE,215.0,VFR Diurno/Noturno,,,-6.346666666666667,-39.294444444444444,1,160.0,,,1422.0,,,30.0,,,heliport
2025_08_22_BR_aerodromes_public,SNIO,BA0010,CIPÓ,CIPÓ,BA,223.0,VFR Diurno,,,-11.125277777777779,-38.48694444444445,1,130.0,,,1560.0,,,28.0,,,heliport
2025_08_22_BR_aerodromes_public,SNGN,PE0006,GARANHUNS,GARANHUNS,PE,759.0,VFR Diurno,,,-8.834444444444445,-36.47138888888889,1,160.0,,,1259.0,,,28.0,,,heliport
2025_08_22_BR_aerodromes_public,SNIP,BA0057,ITAPETINGA,ITAPETINGA,BA,270.0,VFR Diurno,,,-15.244444444444444,-40.27722222222222,1,110.0,,,1400.0,,,29.0,,,heliport
2025_08_22_BR_aerodromes_public,SNIU,BA0030,IPIAÚ,IPIAÚ,BA,132.0,VFR Diurno,,,-14.173333333333332,-39.68416666666666,1,150.0,,,1316.0,,,18.0,,,heliport
2025_08_22_BR_aerodromes_public,SNJB,BA0062,JACOBINA,JACOBINA,BA,489.0,VFR Diurno,,,-11.163055555555555,-40.55333333333333,1,140.0,,,900.0,,,24.0,,,heliport
2025_08_22_BR_aerodromes_public,SDIY,BA0013,JOÃO DURVAL CARNEIRO,FEIRA DE SANTANA,BA,238.0,VFR Diurno/Noturno,,,-12.200555555555555,-38.906388888888884,1,130.0,,,1500.0,,,30.0,,,heliport
2025_08_22_BR_aerodromes_public,SNJK,BA0047,JEQUIÉ,JEQUIÉ,BA,197.0,VFR Diurno,,,-13.877777777777778,-40.07138888888889,1,140.0,,,1200.0,,,23.0,,,heliport
2025_08_22_BR_aerodromes_public,SNJM,MG0050,REGIONAL DE SANTO AMARO DE MINAS,MANHUAÇU,MG,829.0,VFR Diurno,,,-20.259722222222223,-42.18388888888889,1,20.0,,,1170.0,,,30.0,,,heliport
2025_08_22_BR_aerodromes_public,SNJP,MG0036,JOÃO PINHEIRO,JOÃO PINHEIRO,MG,911.0,VFR Diurno,,,-17.7875,-46.12027777777778,1,60.0,,,1300.0,,,23.0,,,heliport
2025_08_22_BR_aerodromes_public,SNJQ,MG0053,JEQUITINHONHA,JEQUITINHONHA,MG,234.0,VFR Diurno,,,-16.441388888888888,-41.03722222222222,1,100.0,,,1130.0,,,23.0,,,heliport
2025_08_22_BR_aerodromes_public,SNJR,MG0034,PREFEITO OCTÁVIO DE ALMEIDA NEVES,SÃO JOÃO DEL REI,MG,945.0,VFR Diurno/Noturno,,,-21.085555555555555,-44.22527777777778,1,80.0,,,1400.0,,,30.0,,,heliport
2025_08_22_BR_aerodromes_public,SNIT,BA0046,IBOTIRAMA,IBOTIRAMA,BA,422.0,VFR Diurno,,,-12.168333333333333,-43.222500000000004,1,160.0,,,1200.0,,,20.0,,,heliport
2025_08_22_BR_aerodromes_public,SNKF,MG0071,DAS BANDEIRINHAS,CONSELHEIRO LAFAIETE,MG,1057.0,VFR Diurno,,,-20.738611111111112,-43.7975,1,40.0,,,902.0,,,24.0,,,heliport
2025_08_22_BR_aerodromes_public,SNKI,ES0006,AERÓDROMO DE CACHOEIRO DE ITAPEMIRIM,CACHOEIRO DE ITAPEMIRIM,ES,78.0,VFR Diurno/Noturno,,,-20.835277777777776,-41.186388888888885,1,60.0,,,1200.0,,,30.0,,,heliport
2025_08_22_BR_aerodromes_public,SNKN,RN0004,CURRAIS NOVOS,CURRAIS NOVOS,RN,367.0,VFR Diurno,,,-6.280833333333334,-36.540277777777774,1,100.0,,,1040.0,,,30.0,,,heliport
2025_08_22_BR_aerodromes_public,SNKR,PI0012,CORRENTE,CORRENTE,PI,473.0,VFR Diurno,,,-10.451944444444443,-45.13638888888889,1,110.0,,,1000.0,,,20.0,,,heliport
2025_08_22_BR_aerodromes_public,SNKD,MG0070,CONCEIÇÃO DO MATO DENTRO,CONCEIÇÃO DO MATO DENTRO,MG,668.0,VFR Diurno,,,-19.01861111111111,-43.43527777777778,1,160.0,,,960.0,,,23.0,,,heliport
2025_08_22_BR_aerodromes_public,SNLN,ES0002,MUNICIPAL DE LINHARES,LINHARES,ES,42.0,VFR Diurno/Noturno,,,-19.35527777777778,-40.07138888888889,1,50.0,,,1860.0,,,45.0,,,heliport
2025_08_22_BR_aerodromes_public,SNLO,MG0037,SÃO LOURENÇO,SÃO LOURENÇO,MG,875.0,VFR Diurno,,,-22.090833333333332,-45.044444444444444,1,50.0,,,1300.0,,,30.0,,,heliport
2025_08_22_BR_aerodromes_public,SNMA,PA0019,MONTE ALEGRE,MONTE ALEGRE,PA,99.0,VFR Diurno,,,-1.9966666666666668,-54.07138888888889,1,100.0,,,1425.0,,,30.0,,,heliport
2025_08_22_BR_aerodromes_public,SNMH,GO0018,PIRENÓPOLIS,PIRENÓPOLIS,GO,784.0,VFR Diurno,,,-15.848611111111111,-48.98277777777778,1,150.0,,,1294.0,,,30.0,,,heliport
2025_08_22_BR_aerodromes_public,SNLI,MG0040,ABAETÉ,ABAETÉ,MG,664.0,VFR Diurno,,,-19.15583333333333,-45.495,1,170.0,,,1200.0,,,30.0,,,heliport
2025_08_22_BR_aerodromes_public,SNMK,MG0017,MOCAMBINHO,JAÍBA,MG,450.0,VFR Diurno,,,-15.093055555555557,-43.97916666666667,1,110.0,,,1531.0,,,30.0,,,heliport
2025_08_22_BR_aerodromes_public,SNMJ,BA0031,MARACÁS,MARACÁS,BA,962.0,VFR Diurno,,,-13.386111111111111,-40.46611111111111,1,80.0,,,1300.0,,,20.0,,,heliport
2025_08_22_BR_aerodromes_public,SNMN,MG0075,MINAS NOVAS,MINAS NOVAS,MG,825.0,VFR Diurno,,,-17.26388888888889,-42.53916666666667,1,150.0,,,735.0,,,20.0,,,heliport
2025_08_22_BR_aerodromes_public,SNMX,ES0003,SÃO MATEUS,SÃO MATEUS,ES,30.0,VFR Diurno/Noturno,,,-18.72138888888889,-39.83361111111111,1,80.0,,,1350.0,,,30.0,,,heliport
2025_08_22_BR_aerodromes_public,SNMR,BA0065,MARAÚ,MARAÚ,BA,9.0,VFR Diurno,,,-14.143333333333333,-39.00666666666667,1,50.0,,,630.0,,,18.0,,,heliport
2025_08_22_BR_aerodromes_public,SNNE,MG0078,SEBASTIÃO CARLOS LEITE,SÃO JOÃO NEPOMUCENO,MG,403.0,VFR Diurno,,,-21.542222222222225,-43.02111111111111,1,110.0,,,620.0,,,40.0,,,heliport
2025_08_22_BR_aerodromes_public,SNNU,MG0041,NANUQUE,NANUQUE,MG,200.0,VFR Diurno,,,-17.823055555555555,-40.32972222222222,1,110.0,,,1220.0,,,23.0,,,heliport
2025_08_22_BR_aerodromes_public,SNOE,PI0008,OEIRAS,OEIRAS,PI,266.0,VFR Diurno/Noturno,,,-7.0183333333333335,-42.16722222222222,1,120.0,,,1200.0,,,23.0,,,heliport
2025_08_22_BR_aerodromes_public,SNOS,MG0024,MUNICIPAL JOSÉ FIGUEIREDO,PASSOS,MG,822.0,VFR Diurno/Noturno,,,-20.731944444444444,-46.661944444444444,1,150.0,,,1500.0,,,30.0,,,heliport
2025_08_22_BR_aerodromes_public,SNOX,PA0014,ORIXIMINÁ,ORIXIMINÁ,PA,80.0,VFR Diurno,,,-1.713611111111111,-55.83583333333333,1,170.0,,,1600.0,,,30.0,,,heliport
2025_08_22_BR_aerodromes_public,SNPA,MG0052,PARÁ DE MINAS,PARÁ DE MINAS,MG,839.0,VFR Diurno,,,-19.842499999999998,-44.600833333333334,1,120.0,,,1260.0,,,23.0,,,heliport
2025_08_22_BR_aerodromes_public,SNPC,PI0009,PICOS,PICOS,PI,335.0,VFR Diurno/Noturno,,,-7.061388888888889,-41.52583333333333,1,140.0,,,1641.0,,,30.0,,,heliport
2025_08_22_BR_aerodromes_public,SNPD,MG0010,PATOS DE MINAS,PATOS DE MINAS,MG,851.0,VFR Diurno/Noturno,,,-18.672222222222224,-46.49138888888889,1,90.0,,,1700.0,,,30.0,,,heliport
2025_08_22_BR_aerodromes_public,SNPJ,MG0042,PATROCÍNIO,PATROCÍNIO,MG,985.0,VFR Diurno,,,-18.909166666666664,-46.98277777777778,1,50.0,,,1200.0,,,30.0,,,heliport
2025_08_22_BR_aerodromes_public,SNMZ,PA0020,PORTO DE MOZ,PORTO DE MOZ,PA,16.0,VFR Diurno,,,-1.7413888888888889,-52.23583333333333,1,50.0,,,1270.0,,,28.0,,,heliport
2025_08_22_BR_aerodromes_public,SBCZ,AC0002,CRUZEIRO DO SUL,CRUZEIRO DO SUL,AC,194.0,VFR Diurno/Noturno e IFR Diurno/Noturno,,,-7.599444444444444,-72.76944444444445,1,100.0,,,2400.0,,,45.0,,,heliport
2025_08_22_BR_aerodromes_public,SNPQ,PE0010,PESQUEIRA,PESQUEIRA,PE,630.0,VFR Diurno,,,-8.374722222222223,-36.63777777777778,1,100.0,,,1000.0,,,20.0,,,heliport
2025_08_22_BR_aerodromes_public,SNPY,MG0013,SÃO SEBASTIÃO DO PARAÍSO,SÃO SEBASTIÃO DO PARAÍSO,MG,950.0,VFR Diurno/Noturno,,,-20.948333333333334,-46.98305555555556,1,50.0,,,1600.0,,,30.0,,,heliport
2025_08_22_BR_aerodromes_public,SNQD,PB0006,SOUSA,SOUSA,PB,227.0,VFR Diurno/Noturno,,,-6.785555555555556,-38.23388888888889,1,150.0,,,1203.0,,,30.0,,,heliport
2025_08_22_BR_aerodromes_public,SNQG,PI0003,CANGAPARA,FLORIANO,PI,210.0,VFR Diurno/Noturno,,,-6.846111111111111,-43.07805555555556,1,160.0,,,1800.0,,,30.0,,,heliport
2025_08_22_BR_aerodromes_public,SNPU,MG0073,COMANDANTE VIRGILIO BORIM,PARAGUAÇU,MG,898.0,VFR Diurno,,,-21.56138888888889,-45.75472222222222,1,70.0,,,900.0,,,30.0,,,heliport
2025_08_22_BR_aerodromes_public,SNQV,MG0044,CURVELO,CURVELO,MG,672.0,VFR Diurno,,,-18.749444444444446,-44.45805555555556,1,90.0,,,1200.0,,,23.0,,,heliport
2025_08_22_BR_aerodromes_public,SNPX,MG0028,PIRAPORA,PIRAPORA,MG,551.0,VFR Diurno,,,-17.31388888888889,-44.85861111111111,1,100.0,,,1480.0,,,30.0,,,heliport
2025_08_22_BR_aerodromes_public,SNRD,BA0048,PRADO,PRADO,BA,27.0,VFR Diurno,,,-17.296944444444446,-39.27194444444444,1,110.0,,,1166.0,,,30.0,,,heliport
2025_08_22_BR_aerodromes_public,SNRM,BA0022,REMANSO,REMANSO,BA,406.0,VFR Diurno,,,-9.58,-42.115833333333335,1,110.0,,,1360.0,,,30.0,,,heliport
2025_08_22_BR_aerodromes_public,SNRP,MG0066,RIO PARANAÍBA,RIO PARANAÍBA,MG,1145.0,VFR Diurno,,,-19.2125,-46.24055555555556,1,170.0,,,550.0,,,22.0,,,heliport
2025_08_22_BR_aerodromes_public,SNRU,PE0004,CARUARU,CARUARU,PE,576.0,VFR Diurno,,,-8.284444444444444,-36.01083333333333,1,130.0,,,1800.0,,,30.0,,,heliport
2025_08_22_BR_aerodromes_public,SNQU,BA0032,MUCUGÊ,MUCUGÊ,BA,1055.0,VFR Diurno,,,-13.031666666666668,-41.44444444444444,1,70.0,,,1400.0,,,19.0,,,heliport
2025_08_22_BR_aerodromes_public,SNRZ,MG0049,OLIVEIRA,OLIVEIRA,MG,1015.0,VFR Diurno/Noturno,,,-20.714444444444442,-44.86527777777778,1,30.0,,,1180.0,,,18.0,,,heliport
2025_08_22_BR_aerodromes_public,SNSE,BA0056,SENTO SÉ,SENTO SÉ,BA,398.0,VFR Diurno,,,-9.7575,-41.855000000000004,1,150.0,,,1195.0,,,19.0,,,heliport
2025_08_22_BR_aerodromes_public,SNQX,CE0010,QUIXADÁ,QUIXADÁ,CE,225.0,VFR Diurno,,,-4.978888888888889,-38.98777777777778,1,140.0,,,1200.0,,,30.0,,,heliport
2025_08_22_BR_aerodromes_public,SNRX,MA0009,RIACHÃO,RIACHÃO,MA,400.0,VFR Diurno,,,-7.346388888888889,-46.6275,1,120.0,,,860.0,,,22.0,,,heliport
2025_08_22_BR_aerodromes_public,SNSM,PA0250,SALINÓPOLIS,SALINÓPOLIS,PA,36.0,VFR Diurno/Noturno,,,-0.696388888888889,-47.336666666666666,1,90.0,,,1600.0,,,30.0,,,heliport
2025_08_22_BR_aerodromes_public,SNSS,MG0029,SALINAS,SALINAS,MG,763.0,VFR Diurno,,,-16.208333333333332,-42.32194444444445,1,180.0,,,1480.0,,,30.0,,,heliport
2025_08_22_BR_aerodromes_public,SNTF,BA0016,TEIXEIRA DE FREITAS,TEIXEIRA DE FREITAS,BA,105.0,VFR Diurno/Noturno,,,-17.524444444444445,-39.66833333333333,1,110.0,,,1460.0,,,30.0,,,heliport
2025_08_22_BR_aerodromes_public,SNTI,PA0016,ÓBIDOS,ÓBIDOS,PA,100.0,VFR Diurno,,,-1.8680555555555556,-55.51444444444444,1,100.0,,,1520.0,,,30.0,,,heliport
2025_08_22_BR_aerodromes_public,SNSG,PE0008,SALGUEIRO,SALGUEIRO,PE,469.0,VFR Diurno,,,-8.046666666666667,-39.13388888888889,1,170.0,,,1300.0,,,30.0,,,heliport
2025_08_22_BR_aerodromes_public,SNTQ,BA0053,BURITIRAMA,BURITIRAMA,BA,499.0,VFR Diurno,,,-10.721666666666668,-43.65361111111111,1,110.0,,,1116.0,,,26.0,,,heliport
2025_08_22_BR_aerodromes_public,SNTS,PB0005,BRIGADEIRO FIRMINO AYRES,PATOS,PB,265.0,VFR Diurno/Noturno,,,-7.0377777777777775,-37.2575,1,120.0,,,1600.0,,,30.0,,,heliport
2025_08_22_BR_aerodromes_public,SNUB,MG0058,UBÁ,UBÁ,MG,317.0,VFR Diurno,,,-21.12,-42.88361111111111,1,160.0,,,1402.0,,,30.0,,,heliport
2025_08_22_BR_aerodromes_public,SNUH,MG0054,PIUMHI,PIUMHI,MG,751.0,VFR Diurno,,,-20.43888888888889,-45.992222222222225,1,70.0,,,1148.0,,,30.0,,,heliport
2025_08_22_BR_aerodromes_public,SNUI,MG0045,ARAÇUAÍ,ARAÇUAÍ,MG,328.0,VFR Diurno,,,-16.851944444444445,-42.04611111111111,1,80.0,,,1200.0,,,30.0,,,heliport
2025_08_22_BR_aerodromes_public,SNUN,MG0055,UNAÍ,UNAÍ,MG,600.0,VFR Diurno,,,-16.35388888888889,-46.926944444444445,1,170.0,,,1185.0,,,30.0,,,heliport
2025_08_22_BR_aerodromes_public,SNSI,MG0076,SANTA MARIA DO SUAÇUÍ,SANTA MARIA DO SUAÇUÍ,MG,480.0,VFR Diurno,,,-18.198611111111113,-42.46611111111111,1,40.0,,,740.0,,,18.0,,,heliport
2025_08_22_BR_aerodromes_public,SNVC,MG0074,VIÇOSA,VIÇOSA,MG,659.0,VFR Diurno,,,-20.745,-42.84138888888889,1,170.0,,,1105.0,,,30.0,,,heliport
2025_08_22_BR_aerodromes_public,SNVD,BA0050,SANTA MARIA DA VITÓRIA,SANTA MARIA DA VITÓRIA,BA,465.0,VFR Diurno,,,-13.404722222222222,-44.223055555555554,1,100.0,,,1300.0,,,30.0,,,heliport
2025_08_22_BR_aerodromes_public,SNVI,MG0035,MELLO VIANA,TRÊS CORAÇÕES,MG,976.0,VFR Diurno/Noturno,,,-21.789166666666667,-45.268055555555556,1,40.0,,,1300.0,,,23.0,,,heliport
2025_08_22_BR_aerodromes_public,SNVS,PA0015,BREVES,BREVES,PA,30.0,VFR Diurno,,,-1.636388888888889,-50.44333333333333,1,70.0,,,1600.0,,,30.0,,,heliport
2025_08_22_BR_aerodromes_public,SNWC,CE0011,CAMOCIM,CAMOCIM,CE,14.0,VFR Diurno/Noturno,,,-2.8958333333333335,-40.85888888888889,1,140.0,,,1200.0,,,30.0,,,heliport
2025_08_22_BR_aerodromes_public,SNWS,CE0005,CRATEÚS,CRATEÚS,CE,318.0,VFR Diurno/Noturno,,,-5.211111111111111,-40.70416666666667,1,80.0,,,1500.0,,,30.0,,,heliport
2025_08_22_BR_aerodromes_public,SNXB,MG0025,CAXAMBU,CAXAMBU,MG,874.0,VFR Diurno/Noturno,,,-21.9175,-44.96944444444445,1,90.0,,,1500.0,,,30.0,,,heliport
2025_08_22_BR_aerodromes_public,SNTO,MG0048,JUSCELINO KUBITSCHECK,TEÓFILO OTONI,MG,480.0,VFR Diurno/Noturno,,,-17.890833333333333,-41.515,1,110.0,,,1190.0,,,23.0,,,heliport
2025_08_22_BR_aerodromes_public,SNYA,PA0024,AERÓDROMO PÚBLICO DE ALMEIRIM,ALMEIRIM,PA,178.0,VFR Diurno,,,-1.4791666666666667,-52.57805555555556,1,60.0,,,1200.0,,,30.0,,,heliport
2025_08_22_BR_aerodromes_public,SNYB,MG0047,TITO TEIXEIRA,ITUIUTABA,MG,612.0,VFR Diurno,,,-19.00138888888889,-49.48722222222222,1,30.0,,,1782.0,,,30.0,,,heliport
2025_08_22_BR_aerodromes_public,SNVB,BA0008,VALENÇA,VALENÇA,BA,5.0,VFR Diurno/Noturno,,,-13.296388888888888,-38.9925,1,40.0,,,1800.0,,,30.0,,,heliport
2025_08_22_BR_aerodromes_public,SNYU,MG0014,ITURAMA,ITURAMA,MG,475.0,VFR Diurno/Noturno,,,-19.71722222222222,-50.22027777777778,1,180.0,,,1550.0,,,30.0,,,heliport
2025_08_22_BR_aerodromes_public,SNZA,MG0038,POUSO ALEGRE,POUSO ALEGRE,MG,885.0,VFR Diurno/Noturno,,,-22.28888888888889,-45.919444444444444,1,20.0,,,1280.0,,,30.0,,,heliport
2025_08_22_BR_aerodromes_public,SNZR,MG0026,PEDRO RABELO DE SOUZA,PARACATU,MG,730.0,VFR Diurno,,,-17.24277777777778,-46.88305555555556,1,110.0,,,1500.0,,,30.0,,,heliport
2025_08_22_BR_aerodromes_public,SSAB,PR0024,MOISÉS LUPION,IBAITI,PR,636.0,VFR Diurno,,,-23.762777777777778,-50.26305555555555,1,50.0,,,1200.0,,,18.0,,,heliport
2025_08_22_BR_aerodromes_public,SSAE,RS0040,ARROIO GRANDE,ARROIO GRANDE,RS,49.0,VFR Diurno,,,-32.22916666666667,-53.05583333333333,1,60.0,,,1000.0,,,18.0,,,heliport
2025_08_22_BR_aerodromes_public,SSAK,RS0048,CARLOS RUHL,CRUZ ALTA,RS,481.0,VFR Diurno,,,-28.65861111111111,-53.61138888888889,2,80.0,170.0,,800.0,650.0,,42.0,46.0,,heliport
2025_08_22_BR_aerodromes_public,SSAN,PR0032,JOÃO GALDINO,ANDIRÁ,PR,490.0,VFR Diurno,,,-23.02722222222222,-50.22694444444445,1,90.0,,,1000.0,,,23.0,,,heliport
2025_08_22_BR_aerodromes_public,SSAP,PR0014,CAPITÃO JOÃO BUSSE,APUCARANA,PR,800.0,VFR Diurno/Noturno,,,-23.612222222222222,-51.385,1,100.0,,,1400.0,,,30.0,,,heliport
2025_08_22_BR_aerodromes_public,SSAQ,RS0036,AEROCLUBE DE PASSO FUNDO,PASSO FUNDO,RS,600.0,VFR Diurno,,,-28.250555555555554,-52.516666666666666,2,150.0,170.0,,1080.0,940.0,,35.0,18.0,,heliport
2025_08_22_BR_aerodromes_public,SSBL,SC0019,BLUMENAU,BLUMENAU,SC,18.0,VFR Diurno,,,-26.831666666666667,-49.093611111111116,1,10.0,,,1080.0,,,30.0,,,heliport
2025_08_22_BR_aerodromes_public,SSBN,RS0002,BELÉM NOVO,PORTO ALEGRE,RS,5.0,VFR Diurno,,,-30.189166666666665,-51.1825,1,90.0,,,1103.0,,,23.0,,,heliport
2025_08_22_BR_aerodromes_public,SSBV,MS0011,BELA VISTA,BELA VISTA,MS,235.0,VFR Diurno,,,-22.08222222222222,-56.538333333333334,1,30.0,,,1300.0,,,23.0,,,heliport
2025_08_22_BR_aerodromes_public,SNXQ,BA0018,XIQUE-XIQUE,XIQUE-XIQUE,BA,427.0,VFR Diurno,,,-10.834166666666667,-42.68333333333333,1,130.0,,,1420.0,,,20.0,,,heliport
2025_08_22_BR_aerodromes_public,SSCD,MS0007,CHAPADÃO DO SUL,CHAPADÃO DO SUL,MS,818.0,VFR Diurno/Noturno,,,-18.839166666666664,-52.488055555555555,1,50.0,,,2000.0,,,30.0,,,heliport
2025_08_22_BR_aerodromes_public,SSCI,MS0012,COXIM,COXIM,MS,294.0,VFR Diurno,,,-18.481388888888887,-54.715833333333336,1,20.0,,,1300.0,,,23.0,,,heliport
2025_08_22_BR_aerodromes_public,SSCK,SC0010,OLAVO CECCO RIGON,CONCÓRDIA,SC,751.0,VFR Diurno/Noturno,,,-27.180555555555557,-52.051111111111105,1,150.0,,,1480.0,,,18.0,,,heliport
2025_08_22_BR_aerodromes_public,SNYE,MA0004,PINHEIRO,PINHEIRO,MA,20.0,VFR Diurno,,,-2.4775,-45.105000000000004,1,90.0,,,1740.0,,,30.0,,,heliport
2025_08_22_BR_aerodromes_public,SSCN,RS0019,CANELA,CANELA,RS,827.0,VFR Diurno,,,-29.370555555555555,-50.83222222222223,1,60.0,,,1260.0,,,18.0,,,heliport
2025_08_22_BR_aerodromes_public,SSCP,PR0015,FRANCISCO LACERDA JÚNIOR,CORNÉLIO PROCÓPIO,PR,567.0,VFR Diurno,,,-23.1525,-50.6025,1,60.0,,,1400.0,,,30.0,,,heliport
2025_08_22_BR_aerodromes_public,SSCB,SP0044,MUNICIPAL DE CASA BRANCA,CASA BRANCA,SP,712.0,VFR Diurno,,,-21.78805555555556,-47.05555555555555,1,90.0,,,1154.0,,,20.0,,,heliport
2025_08_22_BR_aerodromes_public,SSCT,PR0025,ENGENHEIRO GASTÃO DE MESQUITA FILHO,CIANORTE,PR,540.0,VFR Diurno/Noturno,,,-23.691666666666666,-52.64222222222222,1,40.0,,,1220.0,,,23.0,,,heliport
2025_08_22_BR_aerodromes_public,SSEE,RS0054,REGIONAL DO VALE DO TAQUARI,ESTRELA,RS,32.0,VFR Diurno,,,-29.453333333333333,-51.93416666666666,1,60.0,,,570.0,,,18.0,,,heliport
2025_08_22_BR_aerodromes_public,SSEP,RS0031,SÃO SEPÉ,SÃO SEPÉ,RS,153.0,VFR Diurno,,,-30.182222222222222,-53.57944444444445,1,140.0,,,1140.0,,,18.0,,,heliport
2025_08_22_BR_aerodromes_public,SSER,RS0018,ERECHIM,ERECHIM,RS,761.0,VFR Diurno/Noturno,,,-27.66333333333333,-52.27194444444444,1,140.0,,,1280.0,,,30.0,,,heliport
2025_08_22_BR_aerodromes_public,SSEZ,RS0050,ESPUMOSO,ESPUMOSO,RS,390.0,VFR Diurno,,,-28.738055555555558,-52.855555555555554,1,80.0,,,720.0,,,18.0,,,heliport
2025_08_22_BR_aerodromes_public,SSFB,PR0021,PAULO ABDALA,FRANCISCO BELTRÃO,PR,644.0,VFR Diurno/Noturno,,,-26.05888888888889,-53.06333333333333,1,70.0,,,1390.0,,,30.0,,,heliport
2025_08_22_BR_aerodromes_public,SSCR,PR0016,BALDUINO HELMUTH JOPE,MARECHAL CÂNDIDO RONDON,PR,421.0,VFR Diurno,,,-24.512777777777778,-54.05472222222222,1,10.0,,,1400.0,,,30.0,,,heliport
2025_08_22_BR_aerodromes_public,SSGA,RS0020,GARIBALDI,GARIBALDI,RS,680.0,VFR Diurno,,,-29.26833333333333,-51.532222222222224,1,150.0,,,1200.0,,,30.0,,,heliport
2025_08_22_BR_aerodromes_public,SSGB,PR0035,MUNICIPAL DE GUARATUBA,GUARATUBA,PR,15.0,VFR Diurno,,,-25.880555555555556,-48.61222222222222,1,20.0,,,1000.0,,,18.0,,,heliport
2025_08_22_BR_aerodromes_public,SSGW,PR0037,MANOEL RIBAS,GOIOERÊ,PR,491.0,VFR Diurno,,,-24.21972222222222,-53.04388888888889,1,50.0,,,999.0,,,18.0,,,heliport
2025_08_22_BR_aerodromes_public,SSGY,PR0023,GUAÍRA,GUAÍRA,PR,271.0,VFR Diurno,,,-24.079722222222223,-54.18805555555555,1,80.0,,,1300.0,,,30.0,,,heliport
2025_08_22_BR_aerodromes_public,SSHZ,RS0037,WALTER BÜNDCHEN,HORIZONTINA,RS,310.0,VFR Diurno,,,-27.638333333333332,-54.33888888888889,1,160.0,,,1050.0,,,18.0,,,heliport
2025_08_22_BR_aerodromes_public,SSIE,MS0002,TERUEL IPANEMA ESTÂNCIA,CAMPO GRANDE,MS,528.0,VFR Diurno,,,-20.60388888888889,-54.59527777777778,1,60.0,,,1500.0,,,20.0,,,heliport
2025_08_22_BR_aerodromes_public,SSIJ,RS0032,IJUÍ,IJUÍ,RS,365.0,VFR Diurno/Noturno,,,-28.36861111111111,-53.84638888888889,1,180.0,,,1280.0,,,23.0,,,heliport
2025_08_22_BR_aerodromes_public,SSFL,PI0006,JOÃO PEREIRA DOS SANTOS FILHO,FRONTEIRAS,PI,448.0,VFR Diurno/Noturno,,,-7.1,-40.62833333333333,1,110.0,,,1900.0,,,25.0,,,heliport
2025_08_22_BR_aerodromes_public,SSIR,RS0049,IBIRUBÁ,IBIRUBÁ,RS,457.0,VFR Diurno,,,-28.604166666666668,-53.078611111111115,1,110.0,,,900.0,,,18.0,,,heliport
2025_08_22_BR_aerodromes_public,SSJA,SC0014,SANTA TEREZINHA,JOAÇABA,SC,782.0,VFR Diurno/Noturno,,,-27.17138888888889,-51.55333333333333,1,150.0,,,1215.0,,,30.0,,,heliport
2025_08_22_BR_aerodromes_public,SSJI,MS0019,JARDIM,JARDIM,MS,321.0,VFR Diurno,,,-21.49277777777778,-56.152499999999996,1,180.0,,,950.0,,,15.0,,,heliport
2025_08_22_BR_aerodromes_public,SSIQ,RS0045,ITAQUI,ITAQUI,RS,84.0,VFR Diurno,,,-29.171944444444446,-56.538333333333334,1,150.0,,,966.0,,,23.0,,,heliport
2025_08_22_BR_aerodromes_public,SSKG,MS0003,ESTÂNCIA SANTA MARIA,CAMPO GRANDE,MS,618.0,VFR Diurno/Noturno,,,-20.505555555555556,-54.52472222222222,1,60.0,,,1500.0,,,30.0,,,heliport
2025_08_22_BR_aerodromes_public,SSKK,RS0052,CAPÃO DA CANOA,CAPÃO DA CANOA,RS,10.0,VFR Diurno,,,-29.76361111111111,-50.036944444444444,1,80.0,,,700.0,,,27.0,,,heliport
2025_08_22_BR_aerodromes_public,SSKM,PR0017,CAMPO MOURÃO,CAMPO MOURÃO,PR,574.0,VFR Diurno/Noturno,,,-24.0025,-52.356944444444444,1,20.0,,,1370.0,,,30.0,,,heliport
2025_08_22_BR_aerodromes_public,SSKS,RS0039,BRIGADEIRO NERO MOURA,CACHOEIRA DO SUL,RS,77.0,VFR Diurno,,,-30.002222222222223,-52.94027777777777,1,120.0,,,1020.0,,,18.0,,,heliport
2025_08_22_BR_aerodromes_public,SSKU,SC0016,LAURO ANTÔNIO DA COSTA,CURITIBANOS,SC,978.0,VFR Diurno/Noturno,,,-27.287222222222223,-50.60388888888889,1,110.0,,,1400.0,,,30.0,,,heliport
2025_08_22_BR_aerodromes_public,SSKW,RO0004,CACOAL,CACOAL,RO,249.0,VFR Diurno/Noturno e IFR Diurno/Noturno,,,-11.495555555555555,-61.450833333333335,1,170.0,,,2100.0,,,45.0,,,heliport
2025_08_22_BR_aerodromes_public,SSKZ,RS0009,CARAZINHO,CARAZINHO,RS,590.0,VFR Diurno/Noturno,,,-28.321666666666665,-52.81666666666667,1,110.0,,,1560.0,,,30.0,,,heliport
2025_08_22_BR_aerodromes_public,SSLG,RS0021,SÃO LUIZ GONZAGA,SÃO LUIZ GONZAGA,RS,200.0,VFR Diurno,,,-28.37638888888889,-55.0375,1,60.0,,,1200.0,,,60.0,,,heliport
2025_08_22_BR_aerodromes_public,SSLN,SC0018,HELMUTH BAUNGARTEM,LONTRAS,SC,334.0,VFR Diurno/Noturno,,,-27.15972222222222,-49.54277777777778,1,70.0,,,1077.0,,,23.0,,,heliport
2025_08_22_BR_aerodromes_public,SSJK,RS0028,JÚLIO DE CASTILHOS,JÚLIO DE CASTILHOS,RS,498.0,VFR Diurno,,,-29.153055555555554,-53.74333333333333,1,120.0,,,1190.0,,,30.0,,,heliport
2025_08_22_BR_aerodromes_public,SSLT,RS0022,GAUDÊNCIO MACHADO RAMOS,ALEGRETE,RS,125.0,VFR Diurno,,,-29.8125,-55.89333333333333,1,150.0,,,1200.0,,,18.0,,,heliport
2025_08_22_BR_aerodromes_public,SSMJ,MS0020,MARACAJU,MARACAJU,MS,390.0,VFR Diurno,,,-21.633888888888887,-55.144999999999996,1,10.0,,,800.0,,,30.0,,,heliport
2025_08_22_BR_aerodromes_public,SSMR,PR0026,MANOEL RIBAS,MANOEL RIBAS,PR,886.0,VFR Diurno,,,-24.529444444444444,-51.651666666666664,1,170.0,,,1200.0,,,30.0,,,heliport
2025_08_22_BR_aerodromes_public,SSLO,PR0031,ATTILLIO ACCORSI,LOANDA,PR,470.0,VFR Diurno,,,-22.91777777777778,-53.14972222222222,1,50.0,,,1100.0,,,23.0,,,heliport
2025_08_22_BR_aerodromes_public,SSNB,MS0015,ARIOSTO DA RIVA,NAVIRAÍ,MS,406.0,VFR Diurno,,,-23.034166666666668,-54.17777777777778,1,100.0,,,1398.0,,,23.0,,,heliport
2025_08_22_BR_aerodromes_public,SSNG,RS0046,HELIO ALVES DE OLIVEIRA,MONTENEGRO,RS,24.0,VFR Diurno,,,-29.71972222222222,-51.48888888888889,1,130.0,,,932.0,,,23.0,,,heliport
2025_08_22_BR_aerodromes_public,SSNH,RS0023,NOVO HAMBURGO,NOVO HAMBURGO,RS,15.0,VFR Diurno,,,-29.699166666666667,-51.081944444444446,1,20.0,,,870.0,,,30.0,,,heliport
2025_08_22_BR_aerodromes_public,SSNP,RS0041,ILMO ALOÍSIO BLUME,NOVA PRATA,RS,698.0,VFR Diurno,,,-28.80388888888889,-51.602222222222224,1,130.0,,,965.0,,,18.0,,,heliport
2025_08_22_BR_aerodromes_public,SSMT,RS0044,MOSTARDAS,MOSTARDAS,RS,18.0,VFR Diurno,,,-31.101111111111113,-50.908055555555556,1,50.0,,,975.0,,,18.0,,,heliport
2025_08_22_BR_aerodromes_public,SSOE,SC0015,HÉLIO WASUM,SÃO MIGUEL DO OESTE,SC,665.0,VFR Diurno/Noturno,,,-26.78111111111111,-53.50333333333333,1,170.0,,,1260.0,,,18.0,,,heliport
2025_08_22_BR_aerodromes_public,SSNQ,MS0016,NIOAQUE,NIOAQUE,MS,202.0,VFR Diurno,,,-21.184444444444445,-55.83111111111111,1,180.0,,,1200.0,,,18.0,,,heliport
2025_08_22_BR_aerodromes_public,SSOI,SP0043,PEDERNEIRAS,PEDERNEIRAS,SP,536.0,VFR Diurno,,,-22.307222222222222,-48.77305555555555,1,160.0,,,1165.0,,,20.0,,,heliport
2025_08_22_BR_aerodromes_public,SSOL,MG0027,PADRE ISRAEL (ISRAEL BATISTA DE CARVALHO),LAVRAS,MG,959.0,VFR Diurno/Noturno,,,-21.240555555555556,-44.96416666666667,1,50.0,,,1500.0,,,30.0,,,heliport
2025_08_22_BR_aerodromes_public,SSOS,RS0042,OSÓRIO,OSÓRIO,RS,17.0,VFR Diurno,,,-29.90222222222222,-50.24916666666667,1,110.0,,,950.0,,,25.0,,,heliport
2025_08_22_BR_aerodromes_public,SBPO,PR0018,AEROPORTO REGIONAL DE PATO BRANCO - PROFESSOR JUVENAL LOUREIRO CARDOSO,PATO BRANCO,PR,823.0,VFR Diurno/Noturno e IFR Diurno/Noturno,,,-26.21722222222222,-52.69444444444444,1,70.0,,,1621.0,,,30.0,,,heliport
2025_08_22_BR_aerodromes_public,SSPG,PR0011,SANTOS DUMONT,PARANAGUÁ,PR,11.0,VFR Diurno,,,-25.540277777777778,-48.53111111111111,1,60.0,,,1458.0,,,30.0,,,heliport
2025_08_22_BR_aerodromes_public,SSOG,PR0027,ARAPONGAS,ARAPONGAS,PR,794.0,VFR Diurno/Noturno,,,-23.352777777777778,-51.49166666666667,1,160.0,,,1200.0,,,23.0,,,heliport
2025_08_22_BR_aerodromes_public,SSPL,RS0043,PALMEIRA DAS MISSÕES,PALMEIRA DAS MISSÕES,RS,613.0,VFR Diurno,,,-27.901666666666664,-53.330000000000005,1,50.0,,,1160.0,,,18.0,,,heliport
2025_08_22_BR_aerodromes_public,SSPM,MS0013,PORTO MURTINHO,PORTO MURTINHO,MS,132.0,VFR Diurno,,,-21.712777777777777,-57.87916666666667,1,180.0,,,1600.0,,,30.0,,,heliport
2025_08_22_BR_aerodromes_public,SSPI,PR0010,EDU CHAVES,PARANAVAÍ,PR,474.0,VFR Diurno,,,-23.09,-52.48861111111111,1,130.0,,,1500.0,,,30.0,,,heliport
2025_08_22_BR_aerodromes_public,SSPS,PR0036,DIMORVAN CARRARO,PALMAS,PR,1100.0,VFR Diurno,,,-26.47222222222222,-51.97555555555556,1,30.0,,,1050.0,,,23.0,,,heliport
2025_08_22_BR_aerodromes_public,SSPT,PR0028,BRASÍLIO MARQUES,PALOTINA,PR,373.0,VFR Diurno,,,-24.343333333333334,-53.828611111111115,1,30.0,,,1100.0,,,18.0,,,heliport
2025_08_22_BR_aerodromes_public,SSPN,MS0010,PARANAÍBA,PARANAÍBA,MS,442.0,VFR Diurno,,,-19.65111111111111,-51.19944444444444,1,140.0,,,1320.0,,,23.0,,,heliport
2025_08_22_BR_aerodromes_public,SSQP,BA0061,MONTE SANTO,MONTE SANTO,BA,442.0,VFR Diurno,,,-10.465277777777777,-39.28611111111111,1,170.0,,,1000.0,,,30.0,,,heliport
2025_08_22_BR_aerodromes_public,SSQT,PR0013,CASTRO,CASTRO,PR,1010.0,VFR Diurno,,,-24.8075,-49.95944444444445,1,60.0,,,1400.0,,,30.0,,,heliport
2025_08_22_BR_aerodromes_public,SSRE,PR0030,REALEZA,REALEZA,PR,501.0,VFR Diurno,,,-25.801111111111112,-53.51305555555555,1,60.0,,,1200.0,,,18.0,,,heliport
2025_08_22_BR_aerodromes_public,SSRF,BA0034,CASTRO ALVES,CASTRO ALVES,BA,261.0,VFR Diurno,,,-12.767777777777779,-39.44472222222222,1,130.0,,,1200.0,,,21.0,,,heliport
2025_08_22_BR_aerodromes_public,SSRG,SP0030,AEROPORTO ESTADUAL DE REGISTRO,REGISTRO,SP,25.0,VFR Diurno,,,-24.531666666666666,-47.84027777777778,1,110.0,,,1500.0,,,30.0,,,heliport
2025_08_22_BR_aerodromes_public,SSRS,MA0008,BARREIRINHAS,BARREIRINHAS,MA,12.0,VFR Diurno,,,-2.756666666666667,-42.80333333333333,1,110.0,,,1500.0,,,30.0,,,heliport
2025_08_22_BR_aerodromes_public,SSRU,RS0034,SÃO LOURENÇO DO SUL,SÃO LOURENÇO DO SUL,RS,27.0,VFR Diurno,,,-31.384722222222223,-52.0325,1,30.0,,,1055.0,,,18.0,,,heliport
2025_08_22_BR_aerodromes_public,SSRZ,RS0024,DÁRIO BRASIL CAPOANO DE OLIVEIRA,ROSÁRIO DO SUL,RS,102.0,VFR Diurno,,,-30.2775,-54.92527777777777,1,100.0,,,1000.0,,,20.0,,,heliport
2025_08_22_BR_aerodromes_public,SSQC,PR0029,SIQUEIRA CAMPOS,SIQUEIRA CAMPOS,PR,705.0,VFR Diurno,,,-23.674722222222222,-49.815555555555555,1,100.0,,,1200.0,,,23.0,,,heliport
2025_08_22_BR_aerodromes_public,SSSC,RS0029,SANTA CRUZ DO SUL,SANTA CRUZ DO SUL,RS,199.0,VFR Diurno,,,-29.684166666666666,-52.41222222222222,1,80.0,,,1180.0,,,18.0,,,heliport
2025_08_22_BR_aerodromes_public,SSSD,RS0017,SOLEDADE,SOLEDADE,RS,673.0,VFR Diurno,,,-28.863333333333333,-52.54055555555556,1,170.0,,,1199.0,,,23.0,,,heliport
2025_08_22_BR_aerodromes_public,SSSG,RS0035,SÃO GABRIEL,SÃO GABRIEL,RS,145.0,VFR Diurno,,,-30.345,-54.26777777777777,1,40.0,,,1000.0,,,42.0,,,heliport
2025_08_22_BR_aerodromes_public,SSSS,SC0022,SÃO FRANCISCO DO SUL,SÃO FRANCISCO DO SUL,SC,15.0,VFR Diurno,,,-26.22111111111111,-48.56444444444444,1,180.0,,,700.0,,,35.0,,,heliport
2025_08_22_BR_aerodromes_public,SSST,RS0015,SANTIAGO,SANTIAGO,RS,441.0,VFR Diurno,,,-29.215,-54.84166666666667,1,170.0,,,830.0,,,23.0,,,heliport
2025_08_22_BR_aerodromes_public,SSSZ,PR0033,SERTANÓPOLIS,SERTANÓPOLIS,PR,361.0,VFR Diurno,,,-23.061944444444446,-51.013888888888886,1,100.0,,,1023.0,,,25.0,,,heliport
2025_08_22_BR_aerodromes_public,SSTB,SC0013,TRÊS BARRAS,TRÊS BARRAS,SC,789.0,VFR Diurno,,,-26.135277777777777,-50.31055555555555,1,40.0,,,1330.0,,,18.0,,,heliport
2025_08_22_BR_aerodromes_public,SSUM,PR0019,ORLANDO DE CARVALHO,UMUARAMA,PR,473.0,VFR Diurno/Noturno e IFR Diurno/Noturno,,,-23.799166666666668,-53.31388888888888,1,40.0,,,1430.0,,,30.0,,,heliport
2025_08_22_BR_aerodromes_public,SSUV,PR0034,JOSÉ CLETO,UNIÃO DA VITÓRIA,PR,750.0,VFR Diurno,,,-26.231944444444444,-51.0675,1,170.0,,,755.0,,,23.0,,,heliport
2025_08_22_BR_aerodromes_public,SBVC,BA0005,GLAUBER DE ANDRADE ROCHA,VITÓRIA DA CONQUISTA,BA,894.0,VFR Diurno/Noturno e IFR Diurno/Noturno,,,-14.907777777777778,-40.914722222222224,1,150.0,,,2100.0,,,45.0,,,heliport
2025_08_22_BR_aerodromes_public,SSVI,SC0011,ÂNGELO PONZONI,VIDEIRA,SC,843.0,VFR Diurno/Noturno,,,-26.999722222222225,-51.14138888888889,1,100.0,,,1400.0,,,23.0,,,heliport
2025_08_22_BR_aerodromes_public,SSVL,PR0007,TELÊMACO BORBA,TELÊMACO BORBA,PR,796.0,VFR Diurno/Noturno e IFR Diurno/Noturno,,,-24.31638888888889,-50.65222222222222,1,20.0,,,1800.0,,,30.0,,,heliport
2025_08_22_BR_aerodromes_public,SSVN,RS0030,VERANÓPOLIS,VERANÓPOLIS,RS,676.0,VFR Diurno,,,-28.935555555555556,-51.56777777777778,1,120.0,,,1000.0,,,18.0,,,heliport
2025_08_22_BR_aerodromes_public,SBJE,CE0003,COMANDANTE ARISTON PESSOA,CRUZ,CE,27.0,VFR Diurno/Noturno e IFR Diurno/Noturno,,,-2.9066666666666667,-40.35805555555556,1,80.0,,,2200.0,,,45.0,,,heliport
2025_08_22_BR_aerodromes_public,SSWS,RS0025,CAÇAPAVA DO SUL,CAÇAPAVA DO SUL,RS,416.0,VFR Diurno,,,-30.549722222222226,-53.45805555555556,1,90.0,,,1000.0,,,18.0,,,heliport
2025_08_22_BR_aerodromes_public,SSXX,SC0017,MUNICIPAL JOÃO WINCKLER,XANXERÊ,SC,910.0,VFR Diurno/Noturno,,,-26.875,-52.37277777777778,1,180.0,,,1149.0,,,18.0,,,heliport
2025_08_22_BR_aerodromes_public,SSZR,RS0027,LUIS ALBERTO LEHR,SANTA ROSA,RS,309.0,VFR Diurno/Noturno,,,-27.90888888888889,-54.52222222222222,1,70.0,,,1200.0,,,30.0,,,heliport
2025_08_22_BR_aerodromes_public,SBPG,PR0012,COMANDANTE ANTÔNIO AMILTON BERALDO,PONTA GROSSA,PR,789.0,VFR Diurno/Noturno e IFR Diurno/Noturno,,,-25.184444444444445,-50.14388888888889,1,80.0,,,1430.0,,,30.0,,,heliport
2025_08_22_BR_aerodromes_public,SWBC,AM0017,BARCELOS,BARCELOS,AM,34.0,VFR Diurno,,,-0.9811111111111112,-62.919444444444444,1,90.0,,,1500.0,,,30.0,,,heliport
2025_08_22_BR_aerodromes_public,SWBE,CE0006,WALFRIDO SALMITO DE ALMEIDA,SÃO BENEDITO,CE,884.0,VFR Diurno/Noturno,,,-4.042777777777777,-40.89388888888889,1,100.0,,,1500.0,,,30.0,,,heliport
2025_08_22_BR_aerodromes_public,SSSB,RS0014,SÃO BORJA,SÃO BORJA,RS,80.0,VFR Diurno,,,-28.654722222222222,-56.03472222222222,2,70.0,140.0,,1500.0,700.0,,30.0,18.0,,heliport
2025_08_22_BR_aerodromes_public,SWBR,AM0018,BORBA,BORBA,AM,30.0,VFR Diurno,,,-4.4061111111111115,-59.6025,1,120.0,,,1200.0,,,23.0,,,heliport
2025_08_22_BR_aerodromes_public,SWCA,AM0007,CARAUARI,CARAUARI,AM,108.0,VFR Diurno,,,-4.871388888888889,-66.89750000000001,1,40.0,,,1665.0,,,18.0,,,heliport
2025_08_22_BR_aerodromes_public,SWCB,GO0023,CAMPOS BELOS,CAMPOS BELOS,GO,690.0,VFR Diurno,,,-13.006944444444445,-46.71083333333333,1,180.0,,,1200.0,,,20.0,,,heliport
2025_08_22_BR_aerodromes_public,SWBG,MT0009,ANDRÉ ANTÔNIO MAGGI,PONTES E LACERDA,MT,247.0,VFR Diurno,,,-15.193333333333333,-59.38527777777778,1,10.0,,,1500.0,,,30.0,,,heliport
2025_08_22_BR_aerodromes_public,SWCQ,RO0007,COSTA MARQUES,COSTA MARQUES,RO,190.0,VFR Diurno,,,-12.420555555555556,-64.25166666666667,1,20.0,,,1495.0,,,20.0,,,heliport
2025_08_22_BR_aerodromes_public,SWDM,MT0015,DIAMANTINO,DIAMANTINO,MT,469.0,VFR Diurno,,,-14.376666666666667,-56.400555555555556,1,170.0,,,1630.0,,,18.0,,,heliport
2025_08_22_BR_aerodromes_public,SWCZ,GO0024,CERES,CERES,GO,598.0,VFR Diurno,,,-15.34388888888889,-49.60444444444445,1,150.0,,,1078.0,,,23.0,,,heliport
2025_08_22_BR_aerodromes_public,SWDN,TO0006,DIANÓPOLIS,DIANÓPOLIS,TO,736.0,VFR Diurno,,,-11.595277777777778,-46.84777777777778,1,100.0,,,1518.0,,,30.0,,,heliport
2025_08_22_BR_aerodromes_public,SWEK,MT0024,CANARANA,CANARANA,MT,398.0,VFR Diurno,,,-13.5775,-52.268055555555556,1,180.0,,,685.0,,,18.0,,,heliport
2025_08_22_BR_aerodromes_public,SWFN,AM0002,FLORES,MANAUS,AM,62.0,VFR Diurno,,,-3.072777777777778,-60.02111111111111,1,110.0,,,799.0,,,30.0,,,heliport
2025_08_22_BR_aerodromes_public,SWFR,GO0014,FORMOSA,FORMOSA,GO,973.0,VFR Diurno,,,-15.556111111111111,-47.344722222222224,1,50.0,,,1400.0,,,30.0,,,heliport
2025_08_22_BR_aerodromes_public,SWEI,AM0009,EIRUNEPÉ,EIRUNEPÉ,AM,127.0,VFR Diurno,,,-6.639444444444444,-69.87972222222221,1,160.0,,,2300.0,,,45.0,,,heliport
2025_08_22_BR_aerodromes_public,SWGI,TO0004,GURUPI,GURUPI,TO,350.0,VFR Diurno/Noturno,,,-11.739444444444443,-49.13333333333333,1,120.0,,,1730.0,,,30.0,,,heliport
2025_08_22_BR_aerodromes_public,SWGN,TO0002,ARAGUAÍNA,ARAGUAÍNA,TO,236.0,VFR Diurno/Noturno,,,-7.2283333333333335,-48.240833333333335,1,90.0,,,1799.0,,,45.0,,,heliport
2025_08_22_BR_aerodromes_public,SWHP,MT0006,FREDERICO CARLOS MÜLLER,ÁGUA BOA,MT,450.0,VFR Diurno/Noturno,,,-14.019722222222223,-52.151944444444446,1,30.0,,,1627.0,,,18.0,,,heliport
2025_08_22_BR_aerodromes_public,SWFX,MT0022,SÃO FÉLIX DO ARAGUAIA,SÃO FÉLIX DO ARAGUAIA,MT,199.0,VFR Diurno,,,-11.6325,-50.68944444444444,1,120.0,,,1450.0,,,30.0,,,heliport
2025_08_22_BR_aerodromes_public,SWII,AM0013,IPIRANGA,SANTO ANTÔNIO DO IÇÁ,AM,67.0,VFR Diurno,,,-2.940277777777778,-69.69416666666667,1,10.0,,,1500.0,,,30.0,,,heliport
2025_08_22_BR_aerodromes_public,SWIQ,GO0019,AEROPORTO MUNICIPAL JOSÉ CAIRES DE OLIVEIRA,MINAÇU,GO,427.0,VFR Diurno/Noturno,,,-13.549166666666666,-48.19555555555555,1,50.0,,,1340.0,,,30.0,,,heliport
2025_08_22_BR_aerodromes_public,SWJN,MT0007,JUÍNA,JUÍNA,MT,330.0,VFR Diurno,,,-11.419444444444444,-58.71,1,170.0,,,1550.0,,,30.0,,,heliport
2025_08_22_BR_aerodromes_public,SWJW,GO0008,JATAÍ,JATAÍ,GO,771.0,VFR Diurno/Noturno,,,-17.83,-51.775277777777774,1,130.0,,,1500.0,,,23.0,,,heliport
2025_08_22_BR_aerodromes_public,SWKC,MT0017,CÁCERES,CÁCERES,MT,151.0,VFR Diurno,,,-16.0425,-57.63,1,170.0,,,1850.0,,,30.0,,,heliport
2025_08_22_BR_aerodromes_public,SWKO,AM0010,COARI,COARI,AM,40.0,VFR Diurno,,,-4.134166666666667,-63.1325,1,100.0,,,1600.0,,,36.0,,,heliport
2025_08_22_BR_aerodromes_public,SWKQ,PI0004,SERRA DA CAPIVARA/SÃO RAIMUNDO NONATO,SÃO RAIMUNDO NONATO,PI,415.0,VFR Diurno/Noturno,,,-9.083333333333334,-42.64472222222222,1,160.0,,,1650.0,,,45.0,,,heliport
2025_08_22_BR_aerodromes_public,SWHT,AM0019,HUMAITÁ,HUMAITÁ,AM,70.0,VFR Diurno,,,-7.534722222222222,-63.07222222222222,1,140.0,,,1520.0,,,30.0,,,heliport
2025_08_22_BR_aerodromes_public,SWKT,GO0015,CATALÃO,CATALÃO,GO,802.0,VFR Diurno/Noturno,,,-18.216944444444444,-47.89944444444444,1,170.0,,,1520.0,,,30.0,,,heliport
2025_08_22_BR_aerodromes_public,SWLC,GO0009,GENERAL LEITE DE CASTRO,RIO VERDE,GO,751.0,VFR Diurno/Noturno,,,-17.834722222222222,-50.95611111111111,1,40.0,,,1450.0,,,30.0,,,heliport
2025_08_22_BR_aerodromes_public,SWME,GO0033,MINEIROS,MINEIROS,GO,843.0,VFR Diurno/Noturno,,,-17.55138888888889,-52.556666666666665,1,10.0,,,1000.0,,,16.0,,,heliport
2025_08_22_BR_aerodromes_public,SWMW,AM0020,MAUÉS,MAUÉS,AM,21.0,VFR Diurno,,,-3.3719444444444444,-57.724722222222226,1,10.0,,,1200.0,,,30.0,,,heliport
2025_08_22_BR_aerodromes_public,SWNH,GO0017,ARUANÃ,ARUANÃ,GO,250.0,VFR Diurno,,,-14.933055555555555,-51.04833333333333,1,60.0,,,1509.0,,,30.0,,,heliport
2025_08_22_BR_aerodromes_public,SWNK,AM0011,NOVO CAMPO,BOCA DO ACRE,AM,120.0,VFR Diurno,,,-8.834722222222222,-67.3125,1,180.0,,,1600.0,,,30.0,,,heliport
2025_08_22_BR_aerodromes_public,SWLB,AM0024,LÁBREA,LÁBREA,AM,74.0,VFR Diurno,,,-7.278888888888889,-64.76944444444445,1,180.0,,,1200.0,,,30.0,,,heliport
2025_08_22_BR_aerodromes_public,SWNS,GO0004,ANÁPOLIS,ANÁPOLIS,GO,1112.0,VFR Diurno/Noturno,,,-16.3625,-48.92805555555555,1,70.0,,,1218.0,,,45.0,,,heliport
2025_08_22_BR_aerodromes_public,SWNQ,GO0016,NIQUELÂNDIA,NIQUELÂNDIA,GO,840.0,VFR Diurno,,,-14.436388888888889,-48.49194444444444,1,20.0,,,1479.0,,,18.0,,,heliport
2025_08_22_BR_aerodromes_public,SWOB,AM0014,FONTE BOA,FONTE BOA,AM,63.0,VFR Diurno,,,-2.5324999999999998,-66.08333333333333,1,180.0,,,1300.0,,,24.0,,,heliport
2025_08_22_BR_aerodromes_public,SWPG,MT0010,PORTO DOS GAÚCHOS,PORTO DOS GAÚCHOS,MT,400.0,VFR Diurno,,,-11.54,-57.378055555555555,1,10.0,,,1500.0,,,25.0,,,heliport
2025_08_22_BR_aerodromes_public,SWPI,AM0006,PARINTINS,PARINTINS,AM,25.0,VFR Diurno/Noturno,,,-2.673611111111111,-56.777499999999996,1,60.0,,,1801.0,,,30.0,,,heliport
2025_08_22_BR_aerodromes_public,SWPK,MT0021,POCONÉ,POCONÉ,MT,185.0,VFR Diurno,,,-16.271666666666665,-56.651111111111106,1,10.0,,,1150.0,,,23.0,,,heliport
2025_08_22_BR_aerodromes_public,SWPM,RO0009,PIMENTA BUENO,PIMENTA BUENO,RO,208.0,VFR Diurno/Noturno,,,-11.641388888888889,-61.178888888888885,1,40.0,,,1300.0,,,20.0,,,heliport
2025_08_22_BR_aerodromes_public,SWPR,GO0029,PIRES DO RIO,PIRES DO RIO,GO,781.0,VFR Diurno,,,-17.31888888888889,-48.33527777777778,1,110.0,,,1080.0,,,18.0,,,heliport
2025_08_22_BR_aerodromes_public,SWPY,MT0023,PRIMAVERA DO LESTE,PRIMAVERA DO LESTE,MT,655.0,VFR Diurno/Noturno,,,-15.5625,-54.330555555555556,1,10.0,,,1330.0,,,23.0,,,heliport
2025_08_22_BR_aerodromes_public,SWPZ,GO0010,OURIÇANGA DE ABREU,POSSE,GO,841.0,VFR Diurno/Noturno,,,-14.118055555555555,-46.34527777777778,1,100.0,,,1500.0,,,25.0,,,heliport
2025_08_22_BR_aerodromes_public,SWRO,RO0002,AEROCLUBE DE RONDÔNIA,PORTO VELHO,RO,113.0,VFR Diurno,,,-8.794166666666667,-63.8575,1,10.0,,,1300.0,,,30.0,,,heliport
2025_08_22_BR_aerodromes_public,SBSI,MT0002,PRESIDENTE JOÃO BATISTA FIGUEIREDO,SINOP,MT,374.0,VFR Diurno/Noturno e IFR Diurno/Noturno,,,-11.885,-55.586111111111116,1,30.0,,,1630.0,,,30.0,,,heliport
2025_08_22_BR_aerodromes_public,SWTO,TO0008,PARAÍSO DO TOCANTINS,PARAÍSO DO TOCANTINS,TO,353.0,VFR Diurno,,,-10.173888888888888,-48.93277777777777,1,100.0,,,1200.0,,,30.0,,,heliport
2025_08_22_BR_aerodromes_public,SWTP,AM0022,SANTA ISABEL DO RIO NEGRO,SANTA ISABEL DO RIO NEGRO,AM,68.0,VFR Diurno,,,-0.37861111111111106,-64.99305555555556,1,90.0,,,1200.0,,,30.0,,,heliport
2025_08_22_BR_aerodromes_public,SWTS,MT0012,TANGARÁ DA SERRA,TANGARÁ DA SERRA,MT,449.0,VFR Diurno,,,-14.661944444444444,-57.443888888888885,1,180.0,,,1500.0,,,30.0,,,heliport
2025_08_22_BR_aerodromes_public,SWTY,TO0009,TAGUATINGA,TAGUATINGA,TO,597.0,VFR Diurno,,,-12.435,-46.400277777777774,1,60.0,,,1400.0,,,30.0,,,heliport
2025_08_22_BR_aerodromes_public,SWUA,GO0011,SÃO MIGUEL DO ARAGUAIA,SÃO MIGUEL DO ARAGUAIA,GO,384.0,VFR Diurno,,,-13.33388888888889,-50.20583333333334,1,80.0,,,1500.0,,,30.0,,,heliport
2025_08_22_BR_aerodromes_public,SWUD,MG0069,DEPUTADO OSWALDO TOLENTINO,CLÁUDIO,MG,820.0,VFR Diurno,,,-20.445833333333333,-44.81305555555555,1,120.0,,,1000.0,,,30.0,,,heliport
2025_08_22_BR_aerodromes_public,SWUZ,GO0025,BRIGADEIRO ARARIPE MACEDO,LUZIÂNIA,GO,996.0,VFR Diurno,,,-16.261666666666667,-47.968611111111116,1,120.0,,,1200.0,,,20.0,,,heliport
2025_08_22_BR_aerodromes_public,SWVC,MT0016,VILA RICA,VILA RICA,MT,254.0,VFR Diurno,,,-9.981111111111112,-51.14055555555556,1,70.0,,,1350.0,,,30.0,,,heliport
2025_08_22_BR_aerodromes_public,SWWA,GO0012,PORANGATU,PORANGATU,GO,366.0,VFR Diurno/Noturno,,,-13.404444444444445,-49.157222222222224,1,140.0,,,1500.0,,,23.0,,,heliport
2025_08_22_BR_aerodromes_public,SWWU,GO0013,URUAÇU,URUAÇU,GO,520.0,VFR Diurno/Noturno,,,-14.544722222222221,-49.09111111111111,1,180.0,,,1440.0,,,30.0,,,heliport
2025_08_22_BR_aerodromes_public,SWXM,MT0014,REGIONAL ORLANDO VILLAS BOAS,MATUPÁ,MT,270.0,VFR Diurno,,,-10.17,-54.95388888888889,1,20.0,,,1858.0,,,30.0,,,heliport
2025_08_22_BR_aerodromes_public,SWXQ,SP0015,LINS,LINS,SP,480.0,VFR Diurno/Noturno,,,-21.662777777777777,-49.73111111111111,1,140.0,,,1700.0,,,35.0,,,heliport
2025_08_22_BR_aerodromes_public,SWXV,MT0013,NOVA XAVANTINA,NOVA XAVANTINA,MT,308.0,VFR Diurno,,,-14.697777777777778,-52.34722222222222,1,40.0,,,1300.0,,,23.0,,,heliport
2025_08_22_BR_aerodromes_public,SWYN,AM0023,APUÍ,APUÍ,AM,60.0,VFR Diurno,,,-7.1722222222222225,-59.83888888888889,1,80.0,,,1200.0,,,23.0,,,heliport
2025_08_22_BR_aerodromes_public,SBJH,SP1176,SÃO PAULO CATARINA AEROPORTO EXECUTIVO,SÃO ROQUE,SP,777.0,VFR Diurno/Noturno e IFR Diurno/Noturno,,,-23.426944444444445,-47.16583333333333,1,120.0,,,2470.0,,,33.0,,,heliport
2025_08_22_BR_aerodromes_public,SJXI,MG0311,SANTA RITA DO SAPUCAÍ,SANTA RITA DO SAPUCAÍ,MG,882.0,VFR Diurno,,,-22.272777777777776,-45.64,1,160.0,,,1000.0,,,30.0,,,heliport
2025_08_22_BR_aerodromes_public,SNCP,SC0181,AEROPORTO RICARDO SELL WAGNER - REGIONAL DA SERRA CATARINENSE,CORREIA PINTO,SC,880.0,VFR Diurno/Noturno e IFR Diurno/Noturno,,,-27.634166666666665,-50.358333333333334,1,90.0,,,1802.0,,,30.0,,,heliport
2025_08_22_BR_aerodromes_public,SBTC,BA0067,UNA/COMANDATUBA,UNA,BA,7.0,VFR Diurno/Noturno e IFR Diurno/Noturno,,,-15.353333333333333,-38.99722222222222,1,20.0,,,2000.0,,,30.0,,,heliport
2025_08_22_BR_aerodromes_public,SDH2,MT0662,PORTO ALEGRE DO NORTE,PORTO ALEGRE DO NORTE,MT,217.0,VFR Diurno,,,-10.918055555555554,-51.60888888888889,1,120.0,,,1600.0,,,18.0,,,heliport
2025_08_22_BR_aerodromes_public,SNOF,MG0057,OURO FINO,OURO FINO,MG,857.0,VFR Diurno,,,-22.297222222222224,-46.3925,1,60.0,,,1050.0,,,23.0,,,heliport
2025_08_22_BR_aerodromes_public,SDK7,MS0563,NOVA ANDRADINA,NOVA ANDRADINA,MS,419.0,VFR Diurno,,,-22.162499999999998,-53.33027777777778,1,120.0,,,1300.0,,,23.0,,,heliport
2025_08_22_BR_aerodromes_public,SJ4Y,GO0028,MORRINHOS,MORRINHOS,GO,803.0,VFR Diurno,,,-17.761666666666667,-49.12166666666667,1,50.0,,,1135.0,,,18.0,,,heliport
2025_08_22_BR_aerodromes_public,SI68,MT0612,GELINDO STEFANUTO,CAMPO NOVO DO PARECIS,MT,593.0,VFR Diurno,,,-13.731388888888889,-57.891666666666666,1,20.0,,,1600.0,,,30.0,,,heliport
2025_08_22_BR_aerodromes_public,SN6L,CE0164,DR. LUCIANO DE ARRUDA COELHO,SOBRAL,CE,91.0,VFR Diurno/Noturno,,,-3.6147222222222224,-40.23222222222223,1,100.0,,,1800.0,,,30.0,,,heliport
2025_08_22_BR_aerodromes_public,SBFS,RJ0028,FAROL DE SÃO TOMÉ,CAMPOS DOS GOYTACAZES,RJ,2.0,VFR Diurno/Noturno e IFR Diurno/Noturno,,,-22.030555555555555,-41.06861111111112,0,,,,,,,,,,heliport
2025_08_22_BR_aerodromes_public,SN3Y,BA0251,NOVO AEROPORTO DE BOM JESUS DA LAPA,BOM JESUS DA LAPA,BA,443.0,VFR Diurno/Noturno,,,-13.2725,-43.31472222222222,1,10.0,,,1550.0,,,30.0,,,heliport
2025_08_22_BR_aerodromes_public,SJO7,MG0454,MUNICIPAL ELBER PEREIRA,IPANEMA,MG,252.0,VFR Diurno,,,-19.83222222222222,-41.69611111111111,1,20.0,,,1125.0,,,30.0,,,heliport
2025_08_22_BR_aerodromes_public,SJO9,BA0253,SENHOR DO BONFIM,SENHOR DO BONFIM,BA,466.0,VFR Diurno,,,-10.518611111111111,-40.081944444444446,1,110.0,,,1550.0,,,30.0,,,heliport
2025_08_22_BR_aerodromes_public,SBPW,RJ0321,PORTO DO AÇU,SÃO JOÃO DA BARRA,RJ,5.0,VFR Diurno/Noturno e IFR Diurno/Noturno,,,-21.804166666666667,-41.10888888888889,0,,,,,,,,,,heliport
2025_08_22_BR_aerodromes_public,SSBG,RS0091,MUNICIPAL DE BENTO GONÇALVES,BENTO GONÇALVES,RS,671.0,VFR Diurno,,,-29.1475,-51.54083333333333,1,130.0,,,1260.0,,,23.0,,,heliport
2025_08_22_BR_aerodromes_public,SND4,SC0020,ISMAEL NUNES,SÃO JOAQUIM,SC,1426.0,VFR Diurno,,,-28.245555555555555,-49.8975,1,170.0,,,1300.0,,,30.0,,,heliport
2025_08_22_BR_aerodromes_public,SND6,SC0012,DIONÍSIO CERQUEIRA,DIONÍSIO CERQUEIRA,SC,824.0,VFR Diurno,,,-26.28805555555556,-53.630833333333335,1,10.0,,,1376.0,,,18.0,,,heliport
